시설명,시도명,시군구명,시군구코드,소재지도로명주소,소재지지번주소,위도,경도,평일운영시작시각,평일운영종료시각,토요일운영시작시각,토요일운영종료시각,공휴일운영시작시각,공휴일운영종료시각,무료이용시간,연체료부과단위시간,연체료,제어방식구분코드,사용방법설명,택배함종류코드,칸개수,칸깊이,칸너비,칸높이,설치일자,고객센터전화번호,관리기관명,관리기관전화번호,데이터기준일자,제공기관코드,제공기관명,
의정부시 여성안심 택배보관함,경기도,의정부시,41150,경기도 의정부시 평화로 363,경기도 의정부시 호원동 50-5번지,37.7244221760,127.047255,00:00,00:00,00:00,00:00,00:00,00:00,48,24,1000,01,"택배기사에 의해 물품이 보관함으로 배송되면 배송일시와 인증번호가 수령자의 휴대폰으로 전송되며, 택배도착 알림문자(인증번호)를 받은 시민은 보관함에 휴대폰번호와 인증번호를 입력하고 물품을 찾아가면 된다.",대형/01+중형/02+소형/03,01/01+02/05+03/33,01/55+02/55+03/55,01/45+02/45+03/45,01/80+02/45+03/30,2016-05-01,1599-2740,경기도 의정부시,031-828-4232,2019-08-01,3820000,경기도 의정부시,
의정부시 여성안심 택배보관함,경기도,의정부시,41150,경기도 의정부시 장곡로 471,경기도 의정부시 신곡동 547-15번지,37.7452952454,127.0567626774,00:00,00:00,00:00,00:00,00:00,00:00,48,24,1000,01,"택배기사에 의해 물품이 보관함으로 배송되면 배송일시와 인증번호가 수령자의 휴대폰으로 전송되며, 택배도착 알림문자(인증번호)를 받은 시민은 보관함에 휴대폰번호와 인증번호를 입력하고 물품을 찾아가면 된다.",중형/02+소형/03,02/03+03/09,01/55+02/55+03/55,01/45+02/45+03/45,01/80+02/45+03/30,2016-05-01,1599-2740,경기도 의정부시,031-828-4232,2019-08-01,3820000,경기도 의정부시,
의정부시 여성안심 택배보관함,경기도,의정부시,41150,경기도 의정부시 충의로 59,경기도 의정부시 용현동 558번지,37.737254,127.087215504,00:00,00:00,00:00,00:00,00:00,00:00,48,24,1000,01,"택배기사에 의해 물품이 보관함으로 배송되면 배송일시와 인증번호가 수령자의 휴대폰으로 전송되며, 택배도착 알림문자(인증번호)를 받은 시민은 보관함에 휴대폰번호와 인증번호를 입력하고 물품을 찾아가면 된다.",대형/01+중형/02+소형/03,01/01+02/03+03/15,01/55+02/55+03/55,01/45+02/45+03/45,01/80+02/45+03/30,2016-05-01,1599-2740,경기도 의정부시,031-828-4232,2019-08-01,3820000,경기도 의정부시,
의정부시 여성안심 택배보관함,경기도,의정부시,41150,경기도 의정부시 신촌로 35,경기도 의정부시 가능동 617-8번지,37.7505966775,127.0386115420,00:00,00:00,00:00,00:00,00:00,00:00,48,24,1000,01,"택배기사에 의해 물품이 보관함으로 배송되면 배송일시와 인증번호가 수령자의 휴대폰으로 전송되며, 택배도착 알림문자(인증번호)를 받은 시민은 보관함에 휴대폰번호와 인증번호를 입력하고 물품을 찾아가면 된다.",대형/01+중형/02+소형/03,01/01+02/03+03/15,01/55+02/55+03/55,01/45+02/45+03/45,01/80+02/45+03/30,2016-05-01,1599-2740,경기도 의정부시,031-828-4232,2019-08-01,3820000,경기도 의정부시,
이든아이빌,서울특별시,성동구,11200,서울특별시 성동구 왕십리로21라길 11,서울특별시 성동구 하왕십리동 978-1,37.560559,127.0304127,00:00,24:00,00:00,24:00,00:00,24:00,48,24,1000,01,"물품 배송 시 휴대폰 문자로 전송되는 택배보관함번호, 인증번호를 확인하여, 해당 보관함에서 본인 휴대폰 번호와 전송받은 인증번호를 입력한 뒤 보관함을 열어 물품 수령",중소형/03,03/25,03/55,03/252,03/222,2014-01-01,1899-4711,㈜새누,1899-4711,2019-06-03,3030000,서울특별시 성동구,
성동구립도서관,서울특별시,성동구,11200,서울특별시 성동구 고산자로10길 9,서울특별시 성동구 행당동 142-4,37.559153,127.034939,00:00,24:00,00:00,24:00,00:00,24:00,48,24,1000,01,"물품 배송 시 휴대폰 문자로 전송되는 택배보관함번호, 인증번호를 확인하여, 해당 보관함에서 본인 휴대폰 번호와 전송받은 인증번호를 입력한 뒤 보관함을 열어 물품 수령",중소형/03,03/25,03/55,03/252,03/222,2015-01-01,1899-4711,㈜새누,1899-4711,2019-06-03,3030000,서울특별시 성동구,
성동구민종합체육센터,서울특별시,성동구,11200,서울특별시 성동구 왕십리로 89,서울특별시 성동구 성수동1가 685-697,37.545847,127.0440489,00:00,24:00,00:00,24:00,00:00,24:00,48,24,1000,01,"물품 배송 시 휴대폰 문자로 전송되는 택배보관함번호, 인증번호를 확인하여, 해당 보관함에서 본인 휴대폰 번호와 전송받은 인증번호를 입력한 뒤 보관함을 열어 물품 수령",중소형/03,03/19,03/60,03/200,03/230,2017-01-01,1899-4711,㈜새누,1899-4711,2019-06-03,3030000,서울특별시 성동구,
사근동주민센터,서울특별시,성동구,11200,서울특별시 성동구 사근동길 37,서울특별시 성동구 사근동 223-22,37.5614997516,127.045327332,00:00,24:00,00:00,24:00,00:00,24:00,48,24,1000,01,"물품 배송 시 휴대폰 문자로 전송되는 택배보관함번호, 인증번호를 확인하여, 해당 보관함에서 본인 휴대폰 번호와 전송받은 인증번호를 입력한 뒤 보관함을 열어 물품 수령",중소형/03,03/13,03/50,03/200,03/230,2018-01-01,1899-4711,㈜새누,1899-4711,2019-06-03,3030000,서울특별시 성동구,
송림아뜨랫길,인천광역시,동구,28140,인천광역시 동구 송림로 지하 82-1,인천광역시 동구 송림동 39,37.4743178,126.6371998,07:00,23:00,07:00,23:00,07:00,23:00,48,24,1000,02,"물품 배송 시 휴대폰 문자로 전송되는 택배보관함번호, 인증번호를 확인하여, 해당 보관함에서 본인 휴대폰 번호와 전송받은 인증번호를 입력한 뒤 보관함을 열어 물품 수령",중형/02+소형/04,02/6+04/12,02/60+04/60,02/50+04/50,02/45+04/22.5,2018-01-01,1899-4711,인천광역시 동구청,032-770-6493,2019-08-27,3500000,인천광역시 동구,
송현3동 행정복지센터,인천광역시,동구,28140,인천광역시 동구 인중로 635-20,인천광역시 동구 송현동 1-825,37.4822473,126.6426346,00:00,00:00,00:00,00:00,00:00,00:00,48,24,1000,02,"물품 배송 시 휴대폰 문자로 전송되는 택배보관함번호, 인증번호를 확인하여, 해당 보관함에서 본인 휴대폰 번호와 전송받은 인증번호를 입력한 뒤 보관함을 열어 물품 수령",중형/02+소형/04,02/4+04/8,02/60+04/60,02/50+04/50,02/45+04/22.5,2018-12-27,1899-4711,인천광역시 동구청,032-770-6493,2019-08-27,3500000,인천광역시 동구,
만석동 체력단련실,인천광역시,동구,28140,인천광역시 동구 제물량로 394(만석동 행정복지센터 체력단련실 앞),인천광역시 동구 만석동 19-2,37.483307,126.6256522,00:00,00:00,00:00,00:00,00:00,00:00,48,24,1000,02,"물품 배송 시 휴대폰 문자로 전송되는 택배보관함번호, 인증번호를 확인하여, 해당 보관함에서 본인 휴대폰 번호와 전송받은 인증번호를 입력한 뒤 보관함을 열어 물품 수령",중형/02+소형/04,02/6+04/12,02/60+04/60,02/50+04/50,02/45+04/22.5,2019-01-04,1899-4711,인천광역시 동구청,032-770-6493,2019-08-27,3500000,인천광역시 동구,
제주시 외도동 주민센터,제주특별자치도,제주시,50110,제주특별자치도 제주시 일주서로 7350,,33.49292626,126.4322517,00:00,24:00,00:00,24:00,00:00,24:00,72,24,1000,02,1. 이용자:택배수령지를 보관함 설치장소로 지정 2. 택배업체:이용자의 휴대폰 번호 입력 후 물품보관 3. 종합관제센터:이용자의 휴대폰으로 택배도착문자 및 인증번호 발송 4. 이용자:발송된 인증번호 입력 후 물품 수령,중소형/03,03/25,03/60,03/50,03/32,2014-04-30,02-857-2750,여성긴급전화 1366제주센터,064-712-1366,2019-06-11,6500000,제주특별자치도,
서귀포시 동홍동 주민센터,제주특별자치도,서귀포시,50130,제주특별자치도 서귀포시 동홍로 104,,33.2578824,126.5689579,00:00,24:00,00:00,24:00,00:00,24:00,72,24,1000,02,1. 이용자:택배수령지를 보관함 설치장소로 지정 2. 택배업체:이용자의 휴대폰 번호 입력 후 물품보관 3. 종합관제센터:이용자의 휴대폰으로 택배도착문자 및 인증번호 발송 4. 이용자:발송된 인증번호 입력 후 물품 수령,중소형/03,03/25,03/60,03/50,03/32,2014-10-31,02-857-2750,서귀포YWCA,064-762-1400,2019-06-11,6500000,제주특별자치도,
서귀포시 천지동 경로당,제주특별자치도,서귀포시,50130,제주특별자치도 서귀포시 서문로 37,,33.24959795,126.558408,00:00,24:00,00:00,24:00,00:00,24:00,72,24,1000,02,1. 이용자:택배수령지를 보관함 설치장소로 지정 2. 택배업체:이용자의 휴대폰 번호 입력 후 물품보관 3. 종합관제센터:이용자의 휴대폰으로 택배도착문자 및 인증번호 발송 4. 이용자:발송된 인증번호 입력 후 물품 수령,중소형/03,03/25,03/60,03/50,03/32,2017-12-31,02-857-2750,서귀포YWCA,064-762-1400,2019-06-11,6500000,제주특별자치도,
제주중앙지하상가,제주특별자치도,제주시,50110,제주특별자치도 제주시 중앙로 60,,33.51283511,126.5244384,00:00,24:00,00:00,24:00,00:00,24:00,72,24,1000,02,1. 이용자:택배수령지를 보관함 설치장소로 지정 2. 택배업체:이용자의 휴대폰 번호 입력 후 물품보관 3. 종합관제센터:이용자의 휴대폰으로 택배도착문자 및 인증번호 발송 4. 이용자:발송된 인증번호 입력 후 물품 수령,중소형/03,03/19,03/60,03/50,03/32,2015-01-31,02-857-2750,제주중앙지하상점가진흥사업협동조합,064-752-8776,2019-06-11,6500000,제주특별자치도,
이도일동도시재생주민협의체,제주특별자치도,제주시,50110,제주특별자치도 제주시 오현길 9,,33.5061154,126.5274551,00:00,24:00,00:00,24:00,00:00,24:00,72,24,1000,02,1. 이용자:택배수령지를 보관함 설치장소로 지정 2. 택배업체:이용자의 휴대폰 번호 입력 후 물품보관 3. 종합관제센터:이용자의 휴대폰으로 택배도착문자 및 인증번호 발송 4. 이용자:발송된 인증번호 입력 후 물품 수령,중소형/03,03/19,03/60,03/50,03/32,2019-05-31,02-857-2750,이도일동도시재생주민협의체,064-756-5433,2019-06-11,6500000,제주특별자치도,
제주시 인구보건복지협회,제주특별자치도,제주시,50110,제주특별자치도 제주시 신대로13길 21,,33.48782769,126.4989568,00:00,24:00,00:00,24:00,00:00,24:00,72,24,1000,02,1. 이용자:택배수령지를 보관함 설치장소로 지정 2. 택배업체:이용자의 휴대폰 번호 입력 후 물품보관 3. 종합관제센터:이용자의 휴대폰으로 택배도착문자 및 인증번호 발송 4. 이용자:발송된 인증번호 입력 후 물품 수령,중소형/03,03/19,03/60,03/50,03/32,2019-05-31,02-857-2750,인구보건복지협회 제주지회,064-742-0456,2019-06-11,6500000,제주특별자치도,
여성안심택배함,전라북도,익산시,45140,전라북도 익산시 중앙로25길 5,전라북도 익산시 마동 246,35.9380072144,126.959164044,00:00,24:00,00:00,24:00,00:00,24:00,48,24,1000,01,택배기사가 물건을 보관하면 수령인에게 비밀번호 발송,중형/02+중소형/03+소형/04,02/1+03/12+04/3,02/60+03/60+04/60,02/50+03/50+04/50,02/45+03/30+04/22,2018-10-01,063-1599-2740,익산시청,063-859-5193,2019-08-23,4680000,전라북도 익산시,
여성안심택배함,전라북도,익산시,45140,전라북도 익산시 인북로 353,전라북도 익산시 신동 806-1,35.9597718,126.9612337,00:00,24:00,00:00,24:00,00:00,24:00,48,24,1000,01,택배기사가 물건을 보관하면 수령인에게 비밀번호 발송,중형/02+중소형/03+소형/04,02/1+03/12+04/3,02/60+03/60+04/60,02/50+03/50+04/50,02/45+03/30+04/22,2016-10-01,063-1599-2740,익산시청,063-859-5193,2019-08-23,4680000,전라북도 익산시,
여성안심택배함,전라북도,익산시,45140,전라북도 익산시 궁동로 57,전라북도 익산시 영등동 814,35.9626723,126.9777362,00:00,24:00,00:00,24:00,00:00,24:00,48,24,1000,01,택배기사가 물건을 보관하면 수령인에게 비밀번호 발송,대형/01+중형/02+중소형/03+소형/04,01/1+02/3+03/12+04/4,01/60+02/60+03/60+04/60,01/50+02/50+03/50+04/50,01/90+02/45+03/30+04/22,2016-10-01,063-1599-2740,익산시청,063-859-5193,2019-08-23,4680000,전라북도 익산시,
검암경서동 행정복지센터,인천광역시,서구,28260,인천광역시 서구 승학로 480,인천광역시 서구 검암동 606-8,37.5643752,126.6735889,00:00,00:00,00:00,00:00,00:00,00:00,48,24,1000,01,"물품 배송 시 휴대폰 문자로 전송되는 택배보관함번호, 인증번호를 확인하여, 해당 보관함에서 본인 휴대폰 번호와 전송받은 인증번호를 입력한 뒤 보관함을 열어 물품 수령",대형/01+중형/02+소형/04,01/3+02/10+04/12,01/60+02/60+04/60,01/50+02/50+04/50,01/60+02/30+04/15,2016-06-13,1688-7125,인천 서구 가정보육과,032-560-5733,2019-08-26,3560000,인천광역시 서구,
간촌어린이공원,인천광역시,서구,28260,인천광역시 서구 간촌로 13,인천광역시 서구 연희동 707,37.54923549,126.6785831,00:00,00:00,00:00,00:00,00:00,00:00,48,24,1000,01,"물품 배송 시 휴대폰 문자로 전송되는 택배보관함번호, 인증번호를 확인하여, 해당 보관함에서 본인 휴대폰 번호와 전송받은 인증번호를 입력한 뒤 보관함을 열어 물품 수령",대형/01+중형/02+소형/04,01/3+02/10+04/12,01/60+02/60+04/60,01/50+02/50+04/50,01/60+02/30+04/15,2017-09-15,1688-7125,인천 서구 가정보육과,032-560-5733,2019-08-26,3560000,인천광역시 서구,
석남1동 행정복지센터,인천광역시,서구,28260,인천광역시 서구 가정로294번길 17,인천광역시 서구 석남동 465-3,37.5111455,126.6747555,00:00,00:00,00:00,00:00,00:00,00:00,48,24,1000,01,"물품 배송 시 휴대폰 문자로 전송되는 택배보관함번호, 인증번호를 확인하여, 해당 보관함에서 본인 휴대폰 번호와 전송받은 인증번호를 입력한 뒤 보관함을 열어 물품 수령",대형/01+중형/02+소형/04,01/3+02/10+04/12,01/60+02/60+04/60,01/50+02/50+04/50,01/60+02/30+04/15,2017-09-15,1688-7125,인천 서구 가정보육과,032-560-5733,2019-08-26,3560000,인천광역시 서구,
가좌1동 행정복지센터,인천광역시,서구,28260,인천광역시 서구 가정로112번길 10,인천광역시 서구 가좌동 145-19,37.4943353,126.6725139,00:00,00:00,00:00,00:00,00:00,00:00,48,24,1000,01,"물품 배송 시 휴대폰 문자로 전송되는 택배보관함번호, 인증번호를 확인하여, 해당 보관함에서 본인 휴대폰 번호와 전송받은 인증번호를 입력한 뒤 보관함을 열어 물품 수령",대형/01+중형/02+소형/04,01/4+02/6+04/13,01/60+02/60+04/60,01/50+02/50+04/50,01/60+02/30+04/15,2018-03-01,1688-7125,인천 서구 가정보육과,032-560-5733,2019-08-26,3560000,인천광역시 서구,
천마산거북이마을커뮤니티센터,인천광역시,서구,28260,인천광역시 서구 길주로142번길 52,인천광역시 서구 석남동 561-3,37.501471,126.6773004,00:00,00:00,00:00,00:00,00:00,00:00,48,24,1000,01,"물품 배송 시 휴대폰 문자로 전송되는 택배보관함번호, 인증번호를 확인하여, 해당 보관함에서 본인 휴대폰 번호와 전송받은 인증번호를 입력한 뒤 보관함을 열어 물품 수령",대형/01+중형/02+소형/04,01/4+02/6+04/13,01/60+02/60+04/60,01/50+02/50+04/50,01/60+02/30+04/15,2018-03-01,1688-7125,인천 서구 가정보육과,032-560-5733,2019-08-26,3560000,인천광역시 서구,
검단2지구2호어린이공원,인천광역시,서구,28260,인천광역시 서구 완정로45번길 3-2,인천광역시 서구 마전동 1023,37.59558221,126.6693523,00:00,00:00,00:00,00:00,00:00,00:00,48,24,1000,01,"물품 배송 시 오후 3:45 2020-02-19휴대폰 문자로 전송되는 택배보관함번호, 인증번호를 확인하여, 해당 보관함에서 본인 휴대폰 번호와 전송받은 인증번호를 입력한 뒤 보관함을 열어 물품 수령",대형/01+중형/02+소형/04,01/4+02/6+04/13,01/60+02/60+04/60,01/50+02/50+04/50,01/60+02/30+04/15,2018-03-01,1688-7125,인천 서구 가정보육과,032-560-5733,2019-08-26,3560000,인천광역시 서구,
경서동 쑥공원,인천광역시,서구,28260,인천광역시 서구 경서로 53,인천광역시 서구 경서동 745,37.557041,126.655172,00:00,00:00,00:00,00:00,00:00,00:00,48,24,1000,01,"물품 배송 시 휴대폰 문자로 전송되는 택배보관함번호, 인증번호를 확인하여, 해당 보관함에서 본인 휴대폰 번호와 전송받은 인증번호를 입력한 뒤 보관함을 열어 물품 수령",대형/01+중형/02+소형/04,01/3+02/10+04/12,01/60+02/60+04/60,01/50+02/50+04/50,01/60+02/30+04/15,2019-07-01,1688-7125,인천 서구 가정보육과,032-560-5733,2019-08-26,3560000,인천광역시 서구,
원당지구 제4호공원,인천광역시,서구,28260,인천광역시 서구 고산후로183번길 3-12,인천광역시 서구 원당동 805-3,37.599629,126.698745,00:00,00:00,00:00,00:00,00:00,00:00,48,24,1000,01,"물품 배송 시 휴대폰 문자로 전송되는 택배보관함번호, 인증번호를 확인하여, 해당 보관함에서 본인 휴대폰 번호와 전송받은 인증번호를 입력한 뒤 보관함을 열어 물품 수령",대형/01+중형/02+소형/04,01/4+02/6+04/13,01/60+02/60+04/60,01/50+02/50+04/50,01/60+02/30+04/15,2019-07-01,1688-7125,인천 서구 가정보육과,032-560-5733,2019-08-26,3560000,인천광역시 서구,
여성안심택배함,서울특별시,서대문구,11130,서울특별시 서대문구 북아현로 24(북아현동),서울특별시 서대문구 북아현동 129-37,37.559451,126.957011,00:00,24:00,00:00,24:00,00:00,24:00,48,24,1000,03,"부재중 택배 수령이 어려운 경우 물품주문시 택배 수령 장소를 가까운 무인택배보관함으로 지정하고, 핸드폰번호 및 인증번호 인증절차를 거쳐 물건을 찾아가면 됨.",3,19,0.6,2,2.3,2013-12-31,1599-2740,서대문구청 여성가족과,02-330-8236,2019-01-01,3120000,서울특별시 서대문구,
여성안심택배함,서울특별시,서대문구,11130,"서울특별시 서대문구 봉원사2길 13(봉원동, 봉원교회)",서울특별시 서대문구 봉원동 42-6,37.568525,126.946631,00:00,24:00,00:00,24:00,00:00,24:00,48,24,1000,03,"부재중 택배 수령이 어려운 경우 물품주문시 택배 수령 장소를 가까운 무인택배보관함으로 지정하고, 핸드폰번호 및 인증번호 인증절차를 거쳐 물건을 찾아가면 됨.",3,19,0.6,2,2.3,2013-12-31,1599-2740,서대문구청 여성가족과,02-330-8236,2019-01-01,3120000,서울특별시 서대문구,
여성안심택배함,서울특별시,서대문구,11130,서울특별시 서대문구 포방터길 28(홍제3동),서울특별시 서대문구 홍제동 286-30,37.597999,126.949169,00:00,24:00,00:00,24:00,00:00,24:00,48,24,1000,03,"부재중 택배 수령이 어려운 경우 물품주문시 택배 수령 장소를 가까운 무인택배보관함으로 지정하고, 핸드폰번호 및 인증번호 인증절차를 거쳐 물건을 찾아가면 됨.",3,19,0.6,2,2.3,2014-06-30,1599-2740,서대문구청 여성가족과,02-330-8236,2019-01-01,3120000,서울특별시 서대문구,
여성안심택배함,서울특별시,서대문구,11130,서울특별시 서대문구 가좌로4길 154(홍은2동),서울특별시 서대문구 홍은동 338-146,37.585816,126.923424,00:00,24:00,00:00,24:00,00:00,24:00,48,24,1000,03,"부재중 택배 수령이 어려운 경우 물품주문시 택배 수령 장소를 가까운 무인택배보관함으로 지정하고, 핸드폰번호 및 인증번호 인증절차를 거쳐 물건을 찾아가면 됨.",3,19,0.6,2,2.3,2014-06-30,1599-2740,서대문구청 여성가족과,02-330-8236,2019-01-01,3120000,서울특별시 서대문구,
여성안심택배함,서울특별시,서대문구,11130,서울특별시 서대문구 홍은중앙로85(홍은동),서울특별시 서대문구 홍은동 11-853,37.598954,126.947125,00:00,24:00,00:00,24:00,00:00,24:00,48,24,1000,03,"부재중 택배 수령이 어려운 경우 물품주문시 택배 수령 장소를 가까운 무인택배보관함으로 지정하고, 핸드폰번호 및 인증번호 인증절차를 거쳐 물건을 찾아가면 됨.",3,19,0.6,2,2.3,2015-07-31,1599-2740,서대문구청 여성가족과,02-330-8236,2019-01-01,3120000,서울특별시 서대문구,
여성안심택배함,서울특별시,서대문구,11130,서울특별시 서대문구 연희로 189(연희동),서울특별시 서대문구 연희동 77-9,37.573981,126.935215,00:00,24:00,00:00,24:00,00:00,24:00,48,24,1000,03,"부재중 택배 수령이 어려운 경우 물품주문시 택배 수령 장소를 가까운 무인택배보관함으로 지정하고, 핸드폰번호 및 인증번호 인증절차를 거쳐 물건을 찾아가면 됨.",3,19,0.6,2,2.3,2016-05-30,070-7615-7200,서대문구청 여성가족과,02-330-8236,2019-01-01,3120000,서울특별시 서대문구,
여성안심택배함,서울특별시,서대문구,11130,서울특별시 서대문구 모래내로 334(홍은2동),서울특별시 서대문구 홍은동 273-10,37.580052,126.934137,00:00,24:00,00:00,24:00,00:00,24:00,48,24,1000,03,"부재중 택배 수령이 어려운 경우 물품주문시 택배 수령 장소를 가까운 무인택배보관함으로 지정하고, 핸드폰번호 및 인증번호 인증절차를 거쳐 물건을 찾아가면 됨.",3,19,0.6,2,2.3,2017-05-31,070-7615-7200,서대문구청 여성가족과,02-330-8236,2019-01-01,3120000,서울특별시 서대문구,
여성안심택배함,서울특별시,서대문구,11130,서울특별시 서대문구 세검정로4길 32(홍제3동),서울특별시 서대문구 홍제동 7-13,37.593813,126.949677,00:00,24:00,00:00,24:00,00:00,24:00,48,24,1000,03,"부재중 택배 수령이 어려운 경우 물품주문시 택배 수령 장소를 가까운 무인택배보관함으로 지정하고, 핸드폰번호 및 인증번호 인증절차를 거쳐 물건을 찾아가면 됨.",3,19,0.6,2,2.3,2017-05-31,070-7615-7200,서대문구청 여성가족과,02-330-8236,2019-01-01,3120000,서울특별시 서대문구,
여성안심택배함,서울특별시,서대문구,11130,서울특별시 서대문구 북아현로22길 38(북아현동),서울특별시 서대문구 북아현동 1-90,37.564781,126.954713,00:00,24:00,00:00,24:00,00:00,24:00,48,24,1000,03,"부재중 택배 수령이 어려운 경우 물품주문시 택배 수령 장소를 가까운 무인택배보관함으로 지정하고, 핸드폰번호 및 인증번호 인증절차를 거쳐 물건을 찾아가면 됨.",3,25,0.6,2,2.3,2018-05-30,070-7615-7200,서대문구청 여성가족과,02-330-8236,2019-01-01,3120000,서울특별시 서대문구,
여성안심택배함,서울특별시,서대문구,11131,서울특별시 서대문구 남가좌동 328-17,,37.576250,126.926375,00:00,24:00,00:00,24:00,00:00,24:00,48,24,1000,03,"부재중 택배 수령이 어려운 경우 물품주문시 택배 수령 장소를 가까운 무인택배보관함으로 지정하고, 핸드폰번호 및 인증번호 인증절차를 거쳐 물건을 찾아가면 됨.",3,19,0.6,2,2.3,2019-05-30,070-7615-7200,서대문구청 여성가족과,02-330-8236,2019-01-01,3120000,서울특별시 서대문구,
여성안심택배함,인천광역시,연수구,23040,인천광역시 연수구 함박뫼로 127,,37.4222546,126.6810562,00:00,24:00,00:00,24:00,00:00,24:00,24,24,1000,99,이용자:택배 주문시 물품수령을 보관함 설치주소로 지정→택배회사:물품보관(비밀번호 및 보관함번호 자동발송)→보관함:본인인증 및 물품수령,03,03/10,03/55,03/45,03/48,2016-08-20,1899-4711,주식회사 새누,02-865-8384,2019-07-23,3520000,인천광역시 연수구,
여성안심택배함,인천광역시,연수구,23040,인천광역시 연수구 함박뫼로 13,,37.4190771,126.6711606,00:00,24:00,00:00,24:00,00:00,24:00,24,24,1000,99,이용자:택배 주문시 물품수령을 보관함 설치주소로 지정→택배회사:물품보관(비밀번호 및 보관함번호 자동발송)→보관함:본인인증 및 물품수령,03,03/10,03/55,03/45,03/48,2017-06-19,1899-4711,주식회사 새누,02-865-8384,2019-07-23,3520000,인천광역시 연수구,
여성안심택배함,인천광역시,연수구,23040,인천광역시 연수구 함박뫼로 152번길 96,,37.4178505,126.6853117,00:00,24:00,00:00,24:00,00:00,24:00,24,24,1000,99,이용자:택배 주문시 물품수령을 보관함 설치주소로 지정→택배회사:물품보관(비밀번호 및 보관함번호 자동발송)→보관함:본인인증 및 물품수령,03,03/10,03/55,03/45,03/48,2017-06-19,1899-4711,주식회사 새누,02-865-8384,2019-07-23,3520000,인천광역시 연수구,
여성안심택배함,인천광역시,연수구,23040,인천광역시 연수구 넘말로 30,,37.42985289,126.6978766,00:00,24:00,00:00,24:00,00:00,24:00,24,24,1000,99,이용자:택배 주문시 물품수령을 보관함 설치주소로 지정→택배회사:물품보관(비밀번호 및 보관함번호 자동발송)→보관함:본인인증 및 물품수령,03,03/10,03/60,03/60,03/45,2018-09-01,1600-5136,(주) 이온누리,042-331-5136,2019-07-23,3520000,인천광역시 연수구,
여성안심택배함,인천광역시,연수구,23040,,인천광역시 연수구 청학동 514-3,37.4257627,126.6655525,00:00,24:00,00:00,24:00,00:00,24:00,24,24,1000,99,이용자:택배 주문시 물품수령을 보관함 설치주소로 지정→택배회사:물품보관(비밀번호 및 보관함번호 자동발송)→보관함:본인인증 및 물품수령,03,03/10,03/60,03/60,03/45,2018-09-01,1600-5136,(주) 이온누리,042-331-5136,2019-07-23,3520000,인천광역시 연수구,
강화베이힐아파트,인천광역시,강화군,35700,인천광역시 강화군 강화읍 강화대로 234-12,인천광역시 강화군 강화읍 갑곳리 1100,37.7418810775,126.5035018362,00:00,24:00,00:00,24:00,00:00,24:00,0,24,1000,01,대상자핸드폰문자로 보관함번호와비밀번호가 전송되면  48시이내 무료 24시간초가시마다 1000원부과됨,대형/01+소형03,01/6+03/12,01/60+03/60,01/50+03/50,01/60+03/60,2016-07-07,1899-4711,인천광역시 강화군,032-930-3587,2019-09-20,3570000,인천광역시 강화군,
장전동 까치공원 내 무인택배함,부산광역시,금정구,26410,부산광역시 금정구 장전동 220-2,부산광역시 금정구 장전동 220-2,35.238387,129.086232,00:00,23:59,00:00,23:59,00:00,23:59,0,0,0,01,"물품배송시 휴대폰 문자로 전송되는 택배보관함번호, 인증번호를 확인하여 해당 봐관함에서 본인 휴대폰 번호로  전송받은 인증번호를 입력 뒤 보관함을 열어 물품 수령",대형/01+중형/02+소형/04,01/2+02/7+04/10,600,500,",1920",2017-11-28,051-519-4362,금정구청여성가족과,051-519-4362,2019-05-17,3350000,부산광역시 금정구,
구서동 도시숲 내 무인택배함,부산광역시,금정구,26410,부산광역시 금정구 구서동 271,부산광역시 금정구 구서동 271,35.256619,129.089577,00:00,23:59,00:00,23:59,00:00,23:59,0,0,0,01,"물품배송시 휴대폰 문자로 전송되는 택배보관함번호, 인증번호를 확인하여 해당 봐관함에서 본인 휴대폰 번호로  전송받은 인증번호를 입력 뒤 보관함을 열어 물품 수령",대형/01+중형/02+소형/04,01/2+02/7+04/10,600,500,",1920",2018-03-12,051-519-4362,금정구청여성가족과,051-519-4362,2019-05-17,3350000,부산광역시 금정구,
마천2동주민센터,서울특별시,송파구,11710,서울특별시 송파구 마천로287,서울특별시 송파구 마천동127-1,37.496818,127.148538,00:00,24:00,00:00,24:00,00:00,24:00,48,24,1000,01,택배보관후 비밀번호 발송,특대형/01+대형/02+중형/03+소형/04,03/5+04/15,01/600+02/600+03/600+04/600,01/450+02/450+03/450+04/450,01/90+02/85+03/48+04/33,2015-01-01,1899-4711,㈜ 새누,02-2147-3906,2019-05-31,3230000,서울특별시 송파구,
석촌동주민센터,서울특별시,송파구,11710,서울특별시 송파구 백제고분로37길16,서울특별시 송파구 석촌동265,37.503509,127.1036498,00:00,24:00,00:00,24:00,00:00,24:00,48,24,1000,01,택배보관후 비밀번호 발송,특대형/01+대형/02+중형/03+소형/04,01/1+02/3+03/12+04/3,01/600+02/600+03/600+04/600,01/450+02/450+03/450+04/450,01/90+02/85+03/48+04/33,2015-01-01,1899-4711,㈜ 새누,02-2147-4360,2019-05-31,3230000,서울특별시 송파구,
송파노인종합복지관,서울특별시,송파구,11710,서울특별시 송파구 백제고분로32길41,서울특별시 송파구 삼전동172-2,37.498611,127.094881,00:00,24:00,00:00,24:00,00:00,24:00,48,24,1000,01,택배보관후 비밀번호 발송,특대형/01+대형/02+중형/03+소형/04,02/1+02/6+03/13,01/600+02/600+03/600+04/600,01/450+02/450+03/450+04/450,01/90+02/85+03/48+04/33,2015-01-01,1899-4711,㈜ 새누,02-2203-9400,2019-05-31,3230000,서울특별시 송파구,
여의도순복음송파교회,서울특별시,송파구,11710,서울특별시 송파구 마천로17,서울특별시 송파구 마천동209-1,37.5100834,127.122998,00:00,24:00,00:00,24:00,00:00,24:00,48,24,1000,01,택배보관후 비밀번호 발송,특대형/01+대형/02+중형/03+소형/04,01/1+02/3+03/12+04/3,01/600+02/600+03/600+04/600,01/450+02/450+03/450+04/450,01/90+02/85+03/48+04/33,2015-01-01,1899-4711,㈜ 새누,02-420-4697,2019-05-31,3230000,서울특별시 송파구,
송파여성문화회관,서울특별시,송파구,11710,서울특별시 송파구 백제고분로42길5,서울특별시 송파구 송파동113-2,37.5058964,127.1097053,00:00,24:00,00:00,24:00,00:00,24:00,48,24,1000,01,택배보관후 비밀번호 발송,특대형/01+대형/02+중형/03+소형/04,01/1+02/3+03/30+04/3,01/600+02/600+03/600+04/600,01/450+02/450+03/450+04/450,01/90+02/85+03/48+04/33,2015-01-01,1899-4711,㈜ 새누,02-2203-3330,2019-05-31,3230000,서울특별시 송파구,
거여1동주민센터,서울특별시,송파구,11710,서울특별시 송파구 거여1동주민센터,서울특별시 송파구 거여동136-16,37.496949,127.1432927,09:00,21:00,09:00,21:00,09:00,21:00,48,24,1000,01,택배보관후 비밀번호 발송,특대형/01+대형/02+중형/03+소형/04,01/1+02/3+03/12+04/3,01/600+02/600+03/600+04/600,01/450+02/450+03/450+04/450,01/90+02/85+03/48+04/33,2015-01-01,1899-4711,㈜ 새누,02-2147-4060,2019-05-31,3230000,서울특별시 송파구,
거여2동주민센터,서울특별시,송파구,11710,서울특별시 송파구 거마로2길19,서울특별시 송파구 거여동195-1,37.4935096,127.146818,00:00,24:00,00:00,24:00,00:00,24:00,48,24,1000,01,택배보관후 비밀번호 발송,특대형/01+대형/02+중형/03+소형/04,03/5+04/11,01/600+02/600+03/600+04/600,01/450+02/450+03/450+04/450,01/90+02/85+03/48+04/33,2016-10-04,1899-4711,㈜ 새누,02-2147-4090,2019-05-31,3230000,서울특별시 송파구,
장지동주민센터,서울특별시,송파구,11710,서울특별시 송파구 새말로19길6,서울특별시 송파구 문정동114-4,37.486934,127.132447,00:00,24:00,00:00,24:00,00:00,24:00,48,24,1000,01,택배보관후 비밀번호 발송,특대형/01+대형/02+중형/03+소형/04,01/1+03/6+04/6,01/600+02/600+03/600+04/600,01/450+02/450+03/450+04/450,01/90+02/85+03/48+04/33,2017-05-29,1899-4711,㈜ 새누,02-2147-4570,2019-05-31,3230000,서울특별시 송파구,
문정1동주민센터,서울특별시,송파구,11710,서울특별시 송파구 문정1동주민센터,서울특별시 송파구 문정동29-21,37.4900350,127.124101,00:00,24:00,00:00,24:00,00:00,24:00,48,24,1000,01,택배보관후 비밀번호 발송,특대형/01+대형/02+중형/03+소형/04,01/1+03/8+04/10,01/600+02/600+03/600+04/600,01/450+02/450+03/450+04/450,01/90+02/85+03/48+04/33,2018-05-28,1899-4711,㈜ 새누,02-2147-4510,2019-05-31,3230000,서울특별시 송파구,
효성체육문화센터,인천광역시,계양구,28245,인천광역시 계양구 마장로544번길 13,인천광역시 계양구 효성동 495-4,37.5268992,126.7068201,00:00,24:00,00:00,24:00,00:00,24:00,48,24,1000,02,"물품 배송 시 휴대폰 문자로 전송되는 택배보관함 번호, 인증번호를 확인하여, 해당 보관함에서 본인 휴대폰 번호와 전송받은 인증번호를 입력한 뒤 보관함을 열어 물품 수령",중형/02+소형/04,02/6+04/12,02/600+04/600,02/500+04/500,02/450+04/225,2016-06-01,1899-4711,인천광역시 계양구청 여성보육과,032-450-5126,2019-08-23,3550000,인천광역시 계양구,
계산2동 행정복지센터,인천광역시,계양구,28245,인천광역시 계양구 주부토로 559,인천광역시 계양구 계산동 920,37.5441616,126.7280198,00:00,24:00,00:00,24:00,00:00,24:00,48,24,1000,02,"물품 배송 시 휴대폰 문자로 전송되는 택배보관함 번호, 인증번호를 확인하여, 해당 보관함에서 본인 휴대폰 번호와 전송받은 인증번호를 입력한 뒤 보관함을 열어 물품 수령",중형/02+소형/04,02/6+04/12,02/600+04/600,02/500+04/500,02/450+04/225,2017-06-01,1899-4711,인천광역시 계양구청 여성보육과,032-450-5126,2019-08-23,3550000,인천광역시 계양구,
작전2동 행정복지센터,인천광역시,계양구,28245,인천광역시 계양구 봉오대로677번길 23,인천광역시 계양구 작전동 854-11,37.5328694,126.7238660,00:00,24:00,00:00,24:00,00:00,24:00,48,24,1000,02,"물품 배송 시 휴대폰 문자로 전송되는 택배보관함 번호, 인증번호를 확인하여, 해당 보관함에서 본인 휴대폰 번호와 전송받은 인증번호를 입력한 뒤 보관함을 열어 물품 수령",중형/02+소형/04,02/6+04/12,02/600+04/600,02/500+04/500,02/450+04/225,2017-06-01,1899-4711,인천광역시 계양구청 여성보육과,032-450-5126,2019-08-23,3550000,인천광역시 계양구,
계양여성회관,인천광역시,계양구,28245,인천광역시 계양구 봉오대로 628번길 10,인천광역시 계양구 효성동 293-7,37.5292214,126.7180642,00:00,24:00,00:00,24:00,00:00,24:00,48,24,1000,02,"물품 배송 시 휴대폰 문자로 전송되는 택배보관함 번호, 인증번호를 확인하여, 해당 보관함에서 본인 휴대폰 번호와 전송받은 인증번호를 입력한 뒤 보관함을 열어 물품 수령",중형/02+소형/04,02/6+04/12,02/600+04/600,02/500+04/500,02/450+04/225,2017-09-01,1899-4711,인천광역시 계양구청 여성보육과,032-450-5126,2019-08-23,3550000,인천광역시 계양구,
계양3동 행정복지센터,인천광역시,계양구,28245,인천광역시 계양구 양지로 31,인천광역시 계양구 동양동 607-2,37.5615784034,126.75490094,00:00,24:00,00:00,24:00,00:00,24:00,48,24,1000,02,"물품 배송 시 휴대폰 문자로 전송되는 택배보관함 번호, 인증번호를 확인하여, 해당 보관함에서 본인 휴대폰 번호와 전송받은 인증번호를 입력한 뒤 보관함을 열어 물품 수령",중형/02+소형/04,02/6+04/12,02/600+04/600,02/500+04/500,02/450+04/225,2018-03-01,1899-4711,인천광역시 계양구청 여성보육과,032-450-5126,2019-08-23,3550000,인천광역시 계양구,
작전서운동 행정복지센터,인천광역시,계양구,28245,인천광역시 계양구 호서로 361,인천광역시 계양구 작전동 918-2,37.5280803,126.7364195,00:00,24:00,00:00,24:00,00:00,24:00,48,24,1000,02,"물품 배송 시 휴대폰 문자로 전송되는 택배보관함 번호, 인증번호를 확인하여, 해당 보관함에서 본인 휴대폰 번호와 전송받은 인증번호를 입력한 뒤 보관함을 열어 물품 수령",중형/02+소형/04,02/5+04/12,02/600+04/600,02/500+04/500,02/450+04/225,2019-04-12,042-331-5136,인천광역시 계양구청 여성보육과,032-450-5126,2019-08-23,3550000,인천광역시 계양구,
계양2동 행정복지센터,인천광역시,계양구,28245,인천광역시 계양구 장제로 853,인천광역시 계양구 임학동 69-23,37.5437392,126.7370186,00:00,24:00,00:00,24:00,00:00,24:00,48,24,1000,02,"물품 배송 시 휴대폰 문자로 전송되는 택배보관함 번호, 인증번호를 확인하여, 해당 보관함에서 본인 휴대폰 번호와 전송받은 인증번호를 입력한 뒤 보관함을 열어 물품 수령",중형/02+소형/04,02/5+04/12,02/600+04/600,02/500+04/500,02/450+04/225,2019-04-12,042-331-5136,인천광역시 계양구청 여성보육과,032-450-5126,2019-08-23,3550000,인천광역시 계양구,
울산광역시 남구청,울산광역시,남구,31140,"울산광역시 남구 돋질로 233, 남구청(의사당건물입구)",울산광역시 남구 달동 1320-1,35.54373848,129.3301153,00:00,23:59,00:00,23:59,00:00,23:59,48,24,500,01,"물품 배송 시 휴대폰 문자로 전송되는 택배보관함번호, 인증번호를 확인하여, 해당 보관함에서 본인 휴대폰 번호와 택배보관함 번호, 전송받은 인증번호를 입력한 뒤 보관함을 열어 물품 수령",대형/01+중형/02+소형/03,01/1+02/6+03/15,01/60+02/60+03/60,01/50+02/50+03/50,01/67.5+02/45+03/22.5,2018-12-12,1600-5136,울산남구 주민소통과,052-226-4944,2019-05-21,3700000,울산광역시 남구,
무거건강생활지원센터,울산광역시,남구,31140,"울산광역시 남구 대학로147번길 41-26, 건강생활지원센터",울산광역시 남구 무거동 1533-6,35.55052396,129.2609204,00:00,23:59,00:00,23:59,00:00,23:59,48,24,500,01,"물품 배송 시 휴대폰 문자로 전송되는 택배보관함번호, 인증번호를 확인하여, 해당 보관함에서 본인 휴대폰 번호와 택배보관함 번호, 전송받은 인증번호를 입력한 뒤 보관함을 열어 물품 수령",대형/01+중형/02+소형/03,01/1+02/6+03/15,01/60+02/60+03/60,01/50+02/50+03/50,01/67.5+02/45+03/22.5,2018-12-12,1600-5136,울산남구 주민소통과,052-226-4944,2019-05-21,3700000,울산광역시 남구,
진잠동행정복지센터,대전광역시,유성구,30200,대전광역시 유성구 원내로 5,대전광역시 유성구 원내동 213-4,36.2997126,127.3163861,00:00,00:00,00:00,00:00,00:00,00:00,48,24,1000,01,"메뉴선택(물품/택배 보관, 물품/택배 찾기),본인인증(수령인인증), 이용",대형/01+중형/02+중소형/03,01/1+02/3+03/13,01/60+02/60+03/60,01/50+02/50+03/50,01/90+02/60+03/30,2016-07-01,042-000-0000,대전광역시 유성구,042-611-2214,2019-06-13,3670000,대전광역시 유성구,
온천1동행정복지센터,대전광역시,유성구,30200,대전광역시 유성구 도안대로589번길 35,대전광역시 유성구 봉명동 451,36.3530725,127.338973,00:00,00:00,00:00,00:00,00:00,00:00,48,24,1000,01,"메뉴선택(물품/택배 보관, 물품/택배 찾기),본인인증(수령인인증), 이용",대형/01+중형/02+중소형/03,01/1+02/3+03/13,01/60+02/60+03/60,01/50+02/50+03/50,01/90+02/60+03/30,2015-04-01,042-000-0000,대전광역시 유성구,042-611-2214,2019-06-13,3670000,대전광역시 유성구,
노은1동행정복지센터,대전광역시,유성구,30200,대전광역시 유성구 노은동로87번길 89,대전광역시 유성구 장대동 546,36.368262,127.318441,00:00,00:00,00:00,00:00,00:00,00:00,48,24,1000,01,"메뉴선택(물품/택배 보관, 물품/택배 찾기),본인인증(수령인인증), 이용",대형/01+중형/02+중소형/03,01/1+02/3+03/13,01/60+02/60+03/60,01/50+02/50+03/50,01/90+02/60+03/30,2015-04-01,042-000-0000,대전광역시 유성구,042-611-2214,2019-06-13,3670000,대전광역시 유성구,
노은2동행정복지센터,대전광역시,유성구,30200,대전광역시 유성구 송림로19번길 35,대전광역시 유성구 하기동 411-1,36.389473,127.320776,00:00,00:00,00:00,00:00,00:00,00:00,48,24,1000,01,"메뉴선택(물품/택배 보관, 물품/택배 찾기),본인인증(수령인인증), 이용",대형/01+중형/02+중소형/03,01/1+02/3+03/13,01/60+02/60+03/60,01/50+02/50+03/50,01/90+02/60+03/30,2016-07-01,042-000-0000,대전광역시 유성구,042-611-2214,2019-06-13,3670000,대전광역시 유성구,
신성동행정복지센터,대전광역시,유성구,30200,대전광역시 유성구 신성로 55,대전광역시 유성구 하기동 18-6,36.389224,127.347374,00:00,00:00,00:00,00:00,00:00,00:00,48,24,1000,01,"메뉴선택(물품/택배 보관, 물품/택배 찾기),본인인증(수령인인증), 이용",대형/01+중형/02+중소형/03,01/1+02/3+03/13,01/60+02/60+03/60,01/50+02/50+03/50,01/90+02/60+03/30,2015-04-01,042-000-0000,대전광역시 유성구,042-611-2214,2019-06-13,3670000,대전광역시 유성구,
전민동행정복지센터,대전광역시,유성구,30200,대전광역시 유성구 유성대로 1719,대전광역시 유성구 전민동 462-6,36.3999852,127.400384,00:00,00:00,00:00,00:00,00:00,00:00,48,24,1000,01,"메뉴선택(물품/택배 보관, 물품/택배 찾기),본인인증(수령인인증), 이용",대형/01+중형/02+중소형/03,01/1+02/3+03/13,01/60+02/60+03/60,01/50+02/50+03/50,01/90+02/60+03/30,2016-07-01,042-000-0000,대전광역시 유성구,042-611-2214,2019-06-13,3670000,대전광역시 유성구,
유성문화원,대전광역시,유성구,30200,대전광역시 유성구 문화원로 46,대전광역시 유성구 궁동 469-1,36.359853,127.340833,00:00,00:00,00:00,00:00,00:00,00:00,48,24,1000,01,"메뉴선택(물품/택배 보관, 물품/택배 찾기),본인인증(수령인인증), 이용",대형/01+중형/02+중소형/03,01/1+02/3+03/13,01/60+02/60+03/60,01/50+02/50+03/50,01/90+02/60+03/30,2015-04-01,042-000-0000,대전광역시 유성구,042-611-2214,2019-06-13,3670000,대전광역시 유성구,
충남대학교(제1학생회관),대전광역시,유성구,30200,대전광역시 유성구 대학로 99,대전광역시 유성구 궁동 220,36.36836824,127.3420001,00:00,00:00,00:00,00:00,00:00,00:00,48,24,1000,01,"메뉴선택(물품/택배 보관, 물품/택배 찾기),본인인증(수령인인증), 이용",중형/02+중소형/03,02/4+03/44,01/60+02/60+03/60,01/50+02/50+03/50,01/90+02/60+03/30,2016-07-01,042-000-0000,대전광역시 유성구,042-611-2214,2019-06-13,3670000,대전광역시 유성구,
구즉우체국,대전광역시,유성구,30200,대전광역시 유성구 구즉로58번길 31-11,대전광역시 유성구 송강동 36-1,36.434386,127.386781,00:00,00:00,00:00,00:00,00:00,00:00,48,24,1000,01,"메뉴선택(물품/택배 보관, 물품/택배 찾기),본인인증(수령인인증), 이용",중형/02+소형/04,02/2+04/8,02/60+04/60,02/50+04/50,02/60+04/30,2017-11-01,042-000-0000,대전광역시 유성구,042-611-2214,2019-06-13,3670000,대전광역시 유성구,
화원읍행정복지센터,대구광역시,달성군,27710,대구광역시 달성군 화원읍 성천로 9길,대구광역시 달성군 화원읍 설화리 555,35.7988391,128.4871518,09:00,23:00,09:00,23:00,09:00,23:00,48,24,1000,01,첨부자료첨부,대형/01+중형/02+중소형/03+소형/04,01/1+02/03+03/12+04/3,01/600+02/600+03/600+04/600,01/450+02/450+03/450+04/450,01/900+02/450+03/300+04/225,2015-05-28,1599-2740,하이스트시스템㈜,1599-2740,2019-09-10,3480000,대구광역시 달성군,
유가읍행정복지센터,대구광역시,달성군,27710,대구광역시 달성군 유가읍 테크노상업로 95,대구광역시 달성군 유가읍 봉리 599-2,35.6938853972,128.459818347,09:00,18:00,09:00,18:00,09:00,18:00,48,24,1000,01,첨부자료첨부,대형/01+중형/02+중소형/03+소형/04,01/1+02/03+03/12+04/3,01/600+02/600+03/600+04/600,01/450+02/450+03/450+04/450,01/900+02/450+03/300+04/225,2015-05-28,1599-2740,하이스트시스템㈜,1599-2740,2019-09-10,3480000,대구광역시 달성군,
가창면행정복지센터,대구광역시,달성군,27710,대구광역시 달성군 가창로 1100,대구광역시 달성군 가창면 용계리 82,35.8025854,128.6229560,09:00,18:00,09:00,18:00,09:00,18:00,48,24,1000,01,첨부자료첨부,대형/01+중형/02+중소형/03+소형/04,01/1+02/1+03/12+04/6,01/600+02/600+03/600+04/600,01/450+02/450+03/450+04/450,01/900+02/450+03/300+04/225,2015-05-28,1599-2740,하이스트시스템㈜,1599-2740,2019-09-10,3480000,대구광역시 달성군,
여성안심택배함,전라남도,광양시,46230,전라남도 광양시 희망길 42,전라남도 광양시 금호동 624-22,34.93701765,127.7231654,00:00,23:59,00:00,23:59,00:00,23:59,0,0,0,2,"택배 신청시 안심택배함으로 발송, 택배함 비밀번호 발송 후",대형/01+중형/02+중소형/03+소형/04,01/05+02/06+03/19+04/08,01/60+02/60+03/60+04/60,01/50+02/50+03/50+04/50,01/60+02/45+03/30+04/22,2014-12-31,061-797-2776,광양시 사회복지과,061-797-2776,2019-09-30,4840000,전라남도 광양시,
여성안심택배함,전라남도,광양시,46230,전라남도 광양시 폭포사랑길 99,전라남도 광양시 금호동 716,34.94028925,127.7319554,00:00,23:59,00:00,23:59,00:00,23:59,0,0,0,2,"택배 신청시 안심택배함으로 발송, 택배함 비밀번호 발송 후",대형/01+중형/02+소형/04,01/01+02/06+04/15,01/60+02/60+04/60,01/50+02/50+04/50,01/67+02/45+04/22,2018-06-30,061-797-2776,광양시 사회복지과,061-797-2776,2019-09-30,4840000,전라남도 광양시,
여성안심택배함,전라남도,광양시,46230,전라남도 광양시 중마중앙로 119-1,전라남도 광양시 중동 1314-6,34.940675,127.6974524,00:00,23:59,00:00,23:59,00:00,23:59,0,0,0,2,"택배 신청시 안심택배함으로 발송, 택배함 비밀번호 발송 후",대형/01+중형/02+소형/04,01/01+02/06+04/15,01/60+02/60+04/60,01/50+02/50+04/50,01/67+02/45+04/22,2018-06-30,061-797-2776,광양시 사회복지과,061-797-2776,2019-09-30,4840000,전라남도 광양시,
여성안심택배함,전라남도,광양시,46230,전라남도 광양시 광양읍 대림오성로 117,전라남도 광양시 광양읍 덕례리 1724-3,34.965188,127.574315,00:00,23:59,00:00,23:59,00:00,23:59,0,0,0,2,"택배 신청시 안심택배함으로 발송, 택배함 비밀번호 발송 후",대형/01+중형/02+소형/04,01/01+02/06+04/15,01/60+02/60+04/60,01/50+02/50+04/50,01/67+02/45+04/22,2018-06-30,061-797-2776,광양시 사회복지과,061-797-2776,2019-09-30,4840000,전라남도 광양시,
무인택배보관함,대전광역시,중구,30140,"대전광역시 중구 대흥로 109(대흥동, 대전중구문화원)",대전광역시 중구 대흥동 448,36.3233627,127.4242786,00:00,24:00,00:00,24:00,00:00,24:00,48,24,1000,01,"물품 배송 시 휴대폰 문자로 전송되는 택배보관함번호, 인증번호를 확인하여, 해당 보관함에서 본인 휴대폰 번호와 전송받은 인증번호를 입력한 뒤 보관함을 열어 물품 수령",대형/01+중형/02+소형/04,01/01+02/04+04/11,01/60+02/60+04/60,01/50+02/50+04/50,01/67.5+02/45+04/22.5,2019-05-17,1600-5136,㈜이온누리,042-331-5136,2019-09-10,3650000,대전광역시 중구,
서남동행정복지센터,광주광역시,동구,35900,광주광역시 동구 서남로 14,,35.1448776,126.9231822,00:00,00:00,00:00,00:00,00:00,00:00,48,24,1000,01,"물품 배송 시 휴대폰 문자로 전송되는 택배보관함번호, 인증번호를 확인하여, 해당 보관함에서 본인 휴대폰 번호와 전송받은 인증번호를 입력한 뒤 보관함을 열어 물품 수령","대형01, 중형02, 중소형03, 소형04",01/1+02/3+03/12+04/3,01/0.6+02/0.6+03/0.6+04/0.6,01/0.5+02/0.5+03/0.5+04/0.5,01/0.225+02/0.3+03/0.45+04/0.9,2019-06-28,1599-2740,동구 여성가족과,062-608-2653,2019-07-01,3590000,광주광역시 동구,
지산2동행정복지센터,광주광역시,동구,35900,광주광역시 동구 지호로 51,,35.1479133,126.9344711,00:00,00:00,00:00,00:00,00:00,00:00,48,24,1000,01,"물품 배송 시 휴대폰 문자로 전송되는 택배보관함번호, 인증번호를 확인하여, 해당 보관함에서 본인 휴대폰 번호와 전송받은 인증번호를 입력한 뒤 보관함을 열어 물품 수령","대형01, 중형02, 중소형03, 소형04",01/1+02/3+03/12+04/3,01/0.6+02/0.6+03/0.6+04/0.6,01/0.5+02/0.5+03/0.5+04/0.5,01/0.225+02/0.3+03/0.45+04/0.9,2019-06-28,1599-2740,동구 여성가족과,062-608-2653,2019-07-01,3590000,광주광역시 동구,
푸른마을공동체센터,광주광역시,동구,35900,광주광역시 동구 동명로67번길 29,,35.153065,126.9236393,00:00,00:00,00:00,00:00,00:00,00:00,48,24,1000,01,"물품 배송 시 휴대폰 문자로 전송되는 택배보관함번호, 인증번호를 확인하여, 해당 보관함에서 본인 휴대폰 번호와 전송받은 인증번호를 입력한 뒤 보관함을 열어 물품 수령","대형01, 중형02, 중소형03, 소형04",01/1+02/3+03/12+04/3,01/0.6+02/0.6+03/0.6+04/0.6,01/0.5+02/0.5+03/0.5+04/0.5,01/0.225+02/0.3+03/0.45+04/0.9,2019-06-28,1599-2740,동구 여성가족과,062-608-2653,2019-07-01,3590000,광주광역시 동구,
여성안심택배함,대구광역시,중구,34100,"대구광역시 중구 국채보상로139길 1, (동인동2가)",대구광역시 중구 동인동2가 177-4,35.86932522,128.6061572,00:00,23:59,00:00,23:59,00:00,23:59,48,24,1000,1,택배 주문 시 택배함 주소로 주문 후 도착 시 인증번호 입력하여 찾기,대형/01+중형/02+중소형/03+소형/04,01/1+02/4+03/3+04/12,01/60+02/60+03/60+04/60,01/50+02/50+03/50+04/50,01/90+02/45+03/30+04/22,2015-06-11,1599-2740,안전총괄과,053-661-2255,2019-09-26,3410000,대구광역시 중구,
목3동주민센터,서울특별시,양천구,11470,서울특별시 양천구 목동중앙남로16나길55,서울특별시 양천구 목동 642-1,37.544705,126.864428,00:00,23:59,00:00,23:59,00:00,23:59,48,24,1000,2,"물품배송시 휴대폰 문자로 전송되는 택배보관함 번호,인증번호를 확인하여, 해당보관함에서 본인 휴대폰 번호와 전송받은 인증번호를 입력한 뒤 보관함을 열어 물품수령",대형/01+중형/02+중소형/03+소형/04,01/1+02/3+03/12+04/3,01/30+02/30+03/30+04/30,01/30+02/30+03/30+04/30,01/70+02/50+03/30+04/20,2013-01-01,1899-4711,(주)새누,1899-4711,2019-11-20,3140000,서울특별시 양천구,
목동문화체육센터,서울특별시,양천구,11470,서울특별시 양천구 목동중앙본로 73,서울특별시 양천구 목동 946-1,37.5428068511,126.869084,00:00,23:59,00:00,23:59,00:00,23:59,48,24,1000,2,"물품배송시 휴대폰 문자로 전송되는 택배보관함 번호,인증번호를 확인하여, 해당보관함에서 본인 휴대폰 번호와 전송받은 인증번호를 입력한 뒤 보관함을 열어 물품수령",중형/02+중소형/03+소형/04,02/5+03/3+04/12,02/30+03/30+04/30,02/30+03/30+04/30,02/50+03/30+04/20,2015-01-01,1899-4711,(주)새누,1899-4711,2019-11-20,3140000,서울특별시 양천구,
신월4동주민센터,서울특별시,양천구,11470,서울특별시 양천구 오목로5길 34,서울특별시 양천구 신월동 425-2,37.524669,126.840078,00:00,23:59,00:00,23:59,00:00,23:59,48,24,1000,2,"물품배송시 휴대폰 문자로 전송되는 택배보관함 번호,인증번호를 확인하여, 해당보관함에서 본인 휴대폰 번호와 전송받은 인증번호를 입력한 뒤 보관함을 열어 물품수령",대형/01+중형/02+중소형/03+소형/04,01/1+02/3+03/12+04/3,01/30+02/30+03/30+04/30,01/30+02/30+03/30+04/30,01/70+02/50+03/30+04/20,2013-01-01,1899-4711,(주)새누,1899-4711,2019-11-20,3140000,서울특별시 양천구,
신월5동주민센터,서울특별시,양천구,11470,서울특별시 양천구 화곡로4길 10,서울특별시 양천구 신월동 52-2,37.538526,126.827165,00:00,23:59,00:00,23:59,00:00,23:59,48,24,1000,2,"물품배송시 휴대폰 문자로 전송되는 택배보관함 번호,인증번호를 확인하여, 해당보관함에서 본인 휴대폰 번호와 전송받은 인증번호를 입력한 뒤 보관함을 열어 물품수령",중형/02+중소형/03+소형/04,02/5+03/3+04/12,02/30+03/30+04/30,02/30+03/30+04/30,02/50+03/30+04/20,2014-01-01,1899-4711,(주)새누,1899-4711,2019-11-20,3140000,서울특별시 양천구,
신월문화체육센터,서울특별시,양천구,11470,서울특별시 양천구 지양로47,서울특별시 양천구 신월동 987,37.520448,126.834568,00:00,23:59,00:00,23:59,00:00,23:59,48,24,1000,2,"물품배송시 휴대폰 문자로 전송되는 택배보관함 번호,인증번호를 확인하여, 해당보관함에서 본인 휴대폰 번호와 전송받은 인증번호를 입력한 뒤 보관함을 열어 물품수령",중형/02+중소형/03+소형/04,02/1+03/7+04/12,02/30+03/30+04/30,02/30+03/30+04/30,02/50+03/30+04/20,2014-01-01,1899-4711,(주)새누,1899-4711,2019-11-20,3140000,서울특별시 양천구,
신정4동주민센터,서울특별시,양천구,11470,서울특별시 양천구 오목로 34길 5,서울특별시 양천구 신정동 949-5,37.5245587349,126.8558042457,00:00,23:59,00:00,23:59,00:00,23:59,48,24,1000,2,"물품배송시 휴대폰 문자로 전송되는 택배보관함 번호,인증번호를 확인하여, 해당보관함에서 본인 휴대폰 번호와 전송받은 인증번호를 입력한 뒤 보관함을 열어 물품수령",중형/02+소형/04,02/5+03/11,02/30+03/30,02/30+03/30,02/50+03/30,2016-01-01,1899-4711,(주)새누,1899-4711,2019-11-20,3140000,서울특별시 양천구,
신월3동주민센터,서울특별시,양천구,11470,서울특별시 양천구 남부순환로 54길 5,서울특별시 양천구 신월동 167-5,37.5336303998,126.829075,00:00,23:59,00:00,23:59,00:00,23:59,48,24,1000,2,"물품배송시 휴대폰 문자로 전송되는 택배보관함 번호,인증번호를 확인하여, 해당보관함에서 본인 휴대폰 번호와 전송받은 인증번호를 입력한 뒤 보관함을 열어 물품수령",중형/02+소형/04,02/5+03/11,02/30+03/30,02/30+03/30,02/50+03/30,2016-01-01,1899-4711,(주)새누,1899-4711,2019-11-20,3140000,서울특별시 양천구,
목동실버복지문화센터,서울특별시,양천구,11470,서울특별시 양천구 목동중앙로 3길 21,서울특별시 양천구 목동 765-1,37.536464,126.869268,00:00,23:59,00:00,23:59,00:00,23:59,48,24,1000,2,"물품배송시 휴대폰 문자로 전송되는 택배보관함 번호,인증번호를 확인하여, 해당보관함에서 본인 휴대폰 번호와 전송받은 인증번호를 입력한 뒤 보관함을 열어 물품수령",중형/02+소형/04,02/5+03/11,02/30+03/30,02/30+03/30,02/50+03/30,2016-01-01,1899-4711,(주)새누,1899-4711,2019-11-20,3140000,서울특별시 양천구,
양천나눔누리센터,서울특별시,양천구,11470,서울특별시 양천구 중앙로250,서울특별시 양천구 신정동 1032-12,37.5189015169,126.853723,00:00,23:59,00:00,23:59,00:00,23:59,48,24,1000,2,"물품배송시 휴대폰 문자로 전송되는 택배보관함 번호,인증번호를 확인하여, 해당보관함에서 본인 휴대폰 번호와 전송받은 인증번호를 입력한 뒤 보관함을 열어 물품수령",대형/01+중형/02+중소형/03+소형/04,01/1+02/5+03/1+04/6,01/30+02/30+03/30+04/30,01/30+02/30+03/30+04/30,01/70+02/50+03/30+04/20,2017-01-01,1899-4711,(주)새누,1899-4711,2019-11-20,3140000,서울특별시 양천구,
목동보건지소,서울특별시,양천구,11470,서울특별시 양천구 목동중앙본로 7가길 11,서울특별시 양천구 목동 717-22,37.5400870707,126.866971,00:00,23:59,00:00,23:59,00:00,23:59,48,24,1000,2,"물품배송시 휴대폰 문자로 전송되는 택배보관함 번호,인증번호를 확인하여, 해당보관함에서 본인 휴대폰 번호와 전송받은 인증번호를 입력한 뒤 보관함을 열어 물품수령",대형/01+중형/02+중소형/03,01/1+02/6+03/6,01/30+02/30+03/30,01/30+02/30+03/30,01/70+02/50+03/30,2018-01-01,1899-4711,(주)새누,1899-4711,2019-11-20,3140000,서울특별시 양천구,
개울도서관,서울특별시,양천구,11470,서울특별시 양천구 중앙로52길 56,서울특별시 양천구 신정동 915-2,37.5259760812,126.8566024690,00:00,23:59,00:00,23:59,00:00,23:59,48,24,1000,2,"물품배송시 휴대폰 문자로 전송되는 택배보관함 번호,인증번호를 확인하여, 해당보관함에서 본인 휴대폰 번호와 전송받은 인증번호를 입력한 뒤 보관함을 열어 물품수령",대형/01+중형/02+중소형/03,01/1+02/6+03/6,01/30+02/30+03/30,01/30+02/30+03/30,01/70+02/50+03/30,2019-10-01,1899-4711,(주)새누,1899-4711,2019-11-20,3140000,서울특별시 양천구,
여성안심택배함,전라남도,순천시,46150,전라남도 순천시 호남길 52,,34.95525731,127.4810473,23:59,23:59,23:59,23:59,23:59,23:59,72,24,1000,2,"물품배송시 휴대폰 문자로 전송되는 택배보관함 번호, 인증번호를 확인하여 해당 보관함에서 본인 휴대폰 번호와 전송받은 인증번호를 입력한 뒤 보관함을 열어 물품 수령",중형/02+소형/04,02/5+04/12,02/60+04/60,02/45+04/22.5,02/50+02/50,2017-12-26,1600-5136,순천시청 여성가족과,061-749-6282,2019-12-27,4820000,전라남도 순천시,
여성안심택배함,전라남도,순천시,46150,전라남도 순천시 연향번영길 54,,34.9471023,127.5185748,23:59,23:59,23:59,23:59,23:59,23:59,72,24,1000,2,"물품배송시 휴대폰 문자로 전송되는 택배보관함 번호, 인증번호를 확인하여 해당 보관함에서 본인 휴대폰 번호와 전송받은 인증번호를 입력한 뒤 보관함을 열어 물품 수령",중형/02+소형/05,02/5+04/12,02/60+04/60,02/45+04/22.5,02/50+02/50,2017-12-26,1600-5136,순천시청 여성가족과,061-749-6282,2019-12-27,4820000,전라남도 순천시,
여성안심택배함,전라남도,순천시,46150,전라남도 순천시 남정5길 1,,34.941335,127.487991,23:59,23:59,23:59,23:59,23:59,23:59,72,24,1000,2,"물품배송시 휴대폰 문자로 전송되는 택배보관함 번호, 인증번호를 확인하여 해당 보관함에서 본인 휴대폰 번호와 전송받은 인증번호를 입력한 뒤 보관함을 열어 물품 수령",중형/02+소형/06,02/5+04/12,02/60+04/60,02/45+04/22.5,02/50+02/50,2018-12-05,1600-5136,순천시청 여성가족과,061-749-6282,2019-12-27,4820000,전라남도 순천시,
도마2동 배재대 후문,대전광역시,서구,30170,대전광역시 서구 신갈마로211번안길 69,,36.3500972,127.3643218,00:00,23:59,00:00,23:59,00:00,23:59,48,24,1000,01,본인 휴대폰 번호와 전송받은 인증번호 입력,01+02+04,01/3+02/5+04/12,01/60+02/60+04/60,01/50+02/50+04/50,01/67.5+02/45+04/22.5,2015-12-01,1600-5136,대전 서구청 여성가족과,042-288-3224,2019-09-11,3660000,대전광역시 서구,
갈마1동 둔산여고 인근,대전광역시,서구,30170,대전광역시 서구 신갈마로 230번길 41,,36.354204,127.3714469,00:00,23:59,00:00,23:59,00:00,23:59,48,24,1000,01,본인 휴대폰 번호와 전송받은 인증번호 입력,01+02+04,01/1+02/5+04/10,01/60+02/60+04/60,01/50+02/50+04/50,01/67.5+02/45+04/22.5,2016-11-30,1600-5136,대전 서구청 여성가족과,042-288-3224,2019-09-11,3660000,대전광역시 서구,
탄방동 숯뱅이 행복마을,대전광역시,서구,30170,대전광역시 서구 도솔로 483번길 66,,36.3441495,127.3996192,00:00,23:59,00:00,23:59,00:00,23:59,48,24,1000,01,본인 휴대폰 번호와 전송받은 인증번호 입력,02+04,02/3+04/8,02/60+04/60,02/50+04/50,02/45+04/22.5,2017-12-15,1600-5136,대전 서구청 여성가족과,042-288-3224,2019-09-11,3660000,대전광역시 서구,
연산5동 주민센터,부산광역시,연제구,26470,부산광역시 연제구 거제천로 124번길 15,부산광역시 연제구 연산동 1478-1,35.18448121,129.0760738,00:00,23:59,00:00,23:59,00:00,23:59,24,0,0,01,"물품 배송 시 휴대폰 문자로 전송되는 택배보관함번호, 인증번호를 확인하여, 해당 보관함에서 본인 휴대폰 번호와 전송받은 인증번호를 입력한 뒤 보관함을 열어 물품 수령",대형/01+중형/02+소형/03,01/01+02/08+03/10,01/600+02/600+03/600,01/500+02/500+03/500,01/1920+02/1920+03/1920,2017-09-15,051-612-1912,부산광역시 연제구,051-665-4647,2019-07-25,3370000,부산광역시 연제구,
연산6동 주민센터,부산광역시,연제구,26470,부산광역시 연제구 쌍미천로 52번길 2,부산광역시 연제구 연산동 2149-2,35.17741821,129.0896601,00:00,23:59,00:00,23:59,00:00,23:59,24,0,0,01,"물품 배송 시 휴대폰 문자로 전송되는 택배보관함번호, 인증번호를 확인하여, 해당 보관함에서 본인 휴대폰 번호와 전송받은 인증번호를 입력한 뒤 보관함을 열어 물품 수령",대형/01+중형/02+소형/03,01/01+02/08+03/10,01/600+02/600+03/600,01/500+02/500+03/500,01/1920+02/1920+03/1920,2017-09-15,051-612-1912,부산광역시 연제구,051-665-4647,2019-07-25,3370000,부산광역시 연제구,
독산1동주민센터,서울특별시,금천구,11545,서울특별시 금천구 시흥대로123길 11(독산동),서울특별시 금천구 독산동 289-5,37.470175,126.8970424,00:00,00:00,00:00,00:00,00:00,00:00,48,24,1000,01,"물품 배송 시 휴대폰 문자로 전송되는 택배보관함번호, 인증번호를 확인하여, 해당 보관함에서 본인 휴대폰 번호와 전송받은 인증번호를 입력한 뒤 보관함을 열어 물품 수령",소형/04,25,550,450,330,2014-06-01,1899-4711,금천구청 여성가족과,02-2627-1438,2019-09-06,3170000,서울특별시 금천구,
호암노인복지관,서울특별시,금천구,11545,서울특별시 금천구 독산로 72길 86-5,서울특별시 금천구 독산동 917,37.46950793,126.9065145,00:00,00:00,00:00,00:00,00:00,00:00,48,24,1000,01,"물품 배송 시 휴대폰 문자로 전송되는 택배보관함번호, 인증번호를 확인하여, 해당 보관함에서 본인 휴대폰 번호와 전송받은 인증번호를 입력한 뒤 보관함을 열어 물품 수령",소형/04,25,550,450,330,2014-06-01,1899-4711,금천구청 여성가족과,02-2627-1438,2019-09-06,3170000,서울특별시 금천구,
시흥3동주민센터,서울특별시,금천구,11545,서울특별시 금천구 시흥대로 18길 40,서울특별시 금천구 시흥동 956-3,37.44026277,126.9058029,00:00,00:00,00:00,00:00,00:00,00:00,48,24,1000,01,"물품 배송 시 휴대폰 문자로 전송되는 택배보관함번호, 인증번호를 확인하여, 해당 보관함에서 본인 휴대폰 번호와 전송받은 인증번호를 입력한 뒤 보관함을 열어 물품 수령",소형/04,25,550,450,330,2014-06-01,1899-4711,금천구청 여성가족과,02-2627-1438,2019-09-06,3170000,서울특별시 금천구,
시흥4동주민센터,서울특별시,금천구,11545,서울특별시 금천구 독산로 36길 14,서울특별시 금천구 시흥동 812-38,37.4589812,126.9061822,00:00,00:00,00:00,00:00,00:00,00:00,48,24,1000,01,"물품 배송 시 휴대폰 문자로 전송되는 택배보관함번호, 인증번호를 확인하여, 해당 보관함에서 본인 휴대폰 번호와 전송받은 인증번호를 입력한 뒤 보관함을 열어 물품 수령",소형/04,13,550,450,330,2014-06-01,1899-4711,금천구청 여성가족과,02-2627-1438,2019-09-06,3170000,서울특별시 금천구,
가산동주민센터,서울특별시,금천구,11545,서울특별시 금천구 가산로 129,서울특별시 금천구 가산동 144-3,37.47689518,126.8917777,00:00,00:00,00:00,00:00,00:00,00:00,48,24,1000,01,"물품 배송 시 휴대폰 문자로 전송되는 택배보관함번호, 인증번호를 확인하여, 해당 보관함에서 본인 휴대폰 번호와 전송받은 인증번호를 입력한 뒤 보관함을 열어 물품 수령",소형/04,19,550,450,330,2016-05-01,1899-4711,금천구청 여성가족과,02-2627-1438,2019-09-06,3170000,서울특별시 금천구,
백산지구대 시흥4치안센터,서울특별시,금천구,11545,서울특별시 금천구 독산로 50길 105 (새재미 마을활력소 주차장),서울특별시 금천구 시흥동 3-83,37.4622766,126.9101918,00:00,00:00,00:00,00:00,00:00,00:00,48,24,1000,01,"물품 배송 시 휴대폰 문자로 전송되는 택배보관함번호, 인증번호를 확인하여, 해당 보관함에서 본인 휴대폰 번호와 전송받은 인증번호를 입력한 뒤 보관함을 열어 물품 수령",소형/04,16,550,450,330,2016-05-01,1899-4711,금천구청 여성가족과,02-2627-1438,2019-09-06,3170000,서울특별시 금천구,
금빛휘트니스센터(시흥1동),서울특별시,금천구,11545,서울특별시 금천구 금하로 668 (금빛공원 내),서울특별시 금천구 시흥동 893,37.4525867,126.9043003,00:00,00:00,00:00,00:00,00:00,00:00,48,24,1000,01,"물품 배송 시 휴대폰 문자로 전송되는 택배보관함번호, 인증번호를 확인하여, 해당 보관함에서 본인 휴대폰 번호와 전송받은 인증번호를 입력한 뒤 보관함을 열어 물품 수령",소형/04,19,550,450,330,2017-05-01,1899-4711,금천구청 여성가족과,02-2627-1438,2019-09-06,3170000,서울특별시 금천구,
금천구청,서울특별시,금천구,11545,서울특별시 금천구 시흥대로 73길 70,서울특별시 금천구 시흥동 1020,37.4567667,126.8954005,00:00,00:00,00:00,00:00,00:00,00:00,48,24,1000,01,"물품 배송 시 휴대폰 문자로 전송되는 택배보관함번호, 인증번호를 확인하여, 해당 보관함에서 본인 휴대폰 번호와 전송받은 인증번호를 입력한 뒤 보관함을 열어 물품 수령",소형/04,13,550,450,330,2018-05-01,1899-4711,금천구청 여성가족과,02-2627-1438,2019-09-06,3170000,서울특별시 금천구,
독산2동주민센터,서울특별시,금천구,11545,서울특별시 금천구 범안로 1240-7,서울특별시 금천구 독산동 1035-13,37.4660771,126.899733,00:00,00:00,00:00,00:00,00:00,00:00,48,24,1000,01,"물품 배송 시 휴대폰 문자로 전송되는 택배보관함번호, 인증번호를 확인하여, 해당 보관함에서 본인 휴대폰 번호와 전송받은 인증번호를 입력한 뒤 보관함을 열어 물품 수령",소형/04,13,550,450,330,2019-06-01,1899-4711,금천구청 여성가족과,02-2627-1438,2019-09-06,3170000,서울특별시 금천구,
의왕역,경기도,의왕시,41430,경기도 의왕시 철도박물관로 66,경기도 의왕시 삼동 191,37.321110,126.948382,00:00,00:00,00:00,00:00,00:00,00:00,0,0,0,1,"물품 배송 시 휴대폰 문자로 전송되는 택배보관함번호, 인증번호를 확인하여, 해당 보관함에서 본인 휴대폰 번호와 전송받은 인증번호를 입력한 뒤 보관함을 열어 물품 수령",중형/01+소형/02,01월 04일,01/60+02/60,01/50+02/50,01/60+02/30,2017-03-31,1899-4771,의왕시청,031-345-2142,2019-09-01,4030000,경기도 의왕시,
오전동주민센터,경기도,의왕시,41430,경기도 의왕시 찬우물길 11,경기도 의왕시 오전동 844-18,37.353605,126.971584,00:00,00:00,00:00,00:00,00:00,00:00,0,0,0,1,"물품 배송 시 휴대폰 문자로 전송되는 택배보관함번호, 인증번호를 확인하여, 해당 보관함에서 본인 휴대폰 번호와 전송받은 인증번호를 입력한 뒤 보관함을 열어 물품 수령",중형/01+소형/02,01월 04일,01/60+02/60,01/50+02/50,01/60+02/30,2016-07-29,1899-4771,의왕시청,031-345-2142,2019-09-01,4030000,경기도 의왕시,
안심택배함,대구광역시,북구,27230,대구광역시 북구 대학로15길16,대구광역시 북구 산격동 1393-27,35.8935456,128.6083117,00:00,23:59,00:00,23:59,00:00,23:59,48,48,1000,02,"1. 물품주민 및 수령장소 지정(무인택배함), 2. 물품보관(택배기사 인증 및 수취인 핸드폰 입력), 3. 택배도착 문자발송(콜센터 운영), 4. 물품수령(고객인증)",총20개,20,600,500,1920,2015-12-01,1599-2740,대구 북구청,053-665-4314,2019-08-30,3450000,대구광역시 북구,
안심택배함,대구광역시,북구,27230,대구광역시 북구 호국로43길 20,대구광역시 북구 서변동 1777,35.9213327,128.5970474877,00:00,23:59,00:00,23:59,00:00,23:59,48,48,1000,02,"1. 물품주민 및 수령장소 지정(무인택배함), 2. 물품보관(택배기사 인증 및 수취인 핸드폰 입력), 3. 택배도착 문자발송(콜센터 운영), 4. 물품수령(고객인증)",총20개,20,600,500,1920,2015-12-01,1599-2740,대구 북구청,053-665-4314,2019-08-30,3450000,대구광역시 북구,
안심택배함,대구광역시,북구,27230,대구광역시 북구 대천로 81,대구광역시 북구 동천동 930-2,35.937318,128.5581853,00:00,23:59,00:00,23:59,00:00,23:59,48,48,1000,02,"1. 물품주민 및 수령장소 지정(무인택배함), 2. 물품보관(택배기사 인증 및 수취인 핸드폰 입력), 3. 택배도착 문자발송(콜센터 운영), 4. 물품수령(고객인증)",총20개,19,600,500,1920,2015-12-01,1599-2740,대구 북구청,053-665-4314,2019-08-30,3450000,대구광역시 북구,
안심택배함,대구광역시,북구,27230,대구광역시 북구 대구체육관로 48,대구광역시 북구 산격동 1490,35.8922716852,128.6042817326,00:00,23:59,00:00,23:59,00:00,23:59,48,48,1000,02,"1. 물품주민 및 수령장소 지정(무인택배함), 2. 물품보관(택배기사 인증 및 수취인 핸드폰 입력), 3. 택배도착 문자발송(콜센터 운영), 4. 물품수령(고객인증)",총20개,16,600,550,2890,2018-12-01,1600-5136,대구 북구청,053-665-4314,2019-08-30,3450000,대구광역시 북구,
안심택배함,대구광역시,북구,27230,대구광역시 북구 구암서로 32,대구광역시 북구 구암동 788-1,35.9389234,128.5660435,00:00,23:59,00:00,23:59,00:00,23:59,48,48,1000,02,"1. 물품주민 및 수령장소 지정(무인택배함), 2. 물품보관(택배기사 인증 및 수취인 핸드폰 입력), 3. 택배도착 문자발송(콜센터 운영), 4. 물품수령(고객인증)",총20개,16,600,550,2890,2018-12-01,1600-5136,대구 북구청,053-665-4314,2019-08-30,3450000,대구광역시 북구,
안심택배함,대구광역시,북구,27230,대구광역시 북구 대현로9길 20-1,대구광역시 북구 대현동 526,35.88659512,128.605551,00:00,23:59,00:00,23:59,00:00,23:59,48,48,1000,02,"1. 물품주민 및 수령장소 지정(무인택배함), 2. 물품보관(택배기사 인증 및 수취인 핸드폰 입력), 3. 택배도착 문자발송(콜센터 운영), 4. 물품수령(고객인증)",총20개,11,600,550,2890,2017-12-01,1600-5136,대구 북구청,053-665-4314,2019-08-30,3450000,대구광역시 북구,
안심택배함,대구광역시,북구,27230,대구광역시 북구 대현로19길 53,대구광역시 북구 대현동 103-35,35.886232,128.611243,00:00,23:59,00:00,23:59,00:00,23:59,48,48,1000,02,"1. 물품주민 및 수령장소 지정(무인택배함), 2. 물품보관(택배기사 인증 및 수취인 핸드폰 입력), 3. 택배도착 문자발송(콜센터 운영), 4. 물품수령(고객인증)",총20개,11,600,550,2890,2017-12-01,1600-5136,대구 북구청,053-665-4314,2019-08-30,3450000,대구광역시 북구,
안심택배함,대구광역시,북구,27230,대구광역시 북구 경대로17길 47-1,대구광역시 북구 복현동 573-6,35.89263207,128.6147744,00:00,23:59,00:00,23:59,00:00,23:59,48,48,1000,02,"1. 물품주민 및 수령장소 지정(무인택배함), 2. 물품보관(택배기사 인증 및 수취인 핸드폰 입력), 3. 택배도착 문자발송(콜센터 운영), 4. 물품수령(고객인증)",총20개,11,600,550,2890,2017-12-01,1600-5136,대구 북구청,053-665-4314,2019-08-30,3450000,대구광역시 북구,
안심택배함,대구광역시,북구,27230,대구광역시 북구 경진로 47,대구광역시 북구 복현동 623,35.893252,128.6170598,00:00,23:59,00:00,23:59,00:00,23:59,48,48,1000,02,"1. 물품주민 및 수령장소 지정(무인택배함), 2. 물품보관(택배기사 인증 및 수취인 핸드폰 입력), 3. 택배도착 문자발송(콜센터 운영), 4. 물품수령(고객인증)",총20개,11,600,550,2890,2017-12-01,1600-5136,대구 북구청,053-665-4314,2019-08-30,3450000,대구광역시 북구,
안심택배함,대구광역시,북구,27230,대구광역시 북구 대학로9길 2,대구광역시 북구 산격동 1499-2,35.891047,128.605927,00:00,23:59,00:00,23:59,00:00,23:59,48,48,1000,02,"1. 물품주민 및 수령장소 지정(무인택배함), 2. 물품보관(택배기사 인증 및 수취인 핸드폰 입력), 3. 택배도착 문자발송(콜센터 운영), 4. 물품수령(고객인증)",총20개,11,600,550,2890,2017-12-01,1600-5136,대구 북구청,053-665-4314,2019-08-30,3450000,대구광역시 북구,
안심택배함,대구광역시,북구,27230,대구광역시 북구 경대로5길 4,대구광역시 북구 대현동 14-1,35.8847485512,128.6131924798,00:00,23:59,00:00,23:59,00:00,23:59,48,48,1000,02,"1. 물품주민 및 수령장소 지정(무인택배함), 2. 물품보관(택배기사 인증 및 수취인 핸드폰 입력), 3. 택배도착 문자발송(콜센터 운영), 4. 물품수령(고객인증)",총20개,11,600,550,2890,2018-12-01,1600-5136,대구 북구청,053-665-4314,2019-08-30,3450000,대구광역시 북구,
안심택배함,대구광역시,북구,27230,대구광역시 북구 경대로5길 4,대구광역시 북구 산격동 489-21,35.8847485512,128.6131924798,00:00,23:59,00:00,23:59,00:00,23:59,48,48,1000,02,"1. 물품주민 및 수령장소 지정(무인택배함), 2. 물품보관(택배기사 인증 및 수취인 핸드폰 입력), 3. 택배도착 문자발송(콜센터 운영), 4. 물품수령(고객인증)",총20개,11,600,550,2890,2019-08-01,1600-5136,대구 북구청,053-665-4314,2019-08-30,3450000,대구광역시 북구,
안심택배함,대구광역시,북구,27230,대구광역시 북구 경대로5길 4,대구광역시 북구 복현동 330-1,35.8847485512,128.6131924798,00:00,23:59,00:00,23:59,00:00,23:59,48,48,1000,02,"1. 물품주민 및 수령장소 지정(무인택배함), 2. 물품보관(택배기사 인증 및 수취인 핸드폰 입력), 3. 택배도착 문자발송(콜센터 운영), 4. 물품수령(고객인증)",총20개,11,600,550,2890,2019-08-01,1600-5136,대구 북구청,053-665-4314,2019-08-30,3450000,대구광역시 북구,
안심택배함,대구광역시,북구,27230,대구광역시 북구 경대로5길 4,대구광역시 북구 태전동 1046-1,35.8847485512,128.6131924798,00:00,23:59,00:00,23:59,00:00,23:59,48,48,1000,02,"1. 물품주민 및 수령장소 지정(무인택배함), 2. 물품보관(택배기사 인증 및 수취인 핸드폰 입력), 3. 택배도착 문자발송(콜센터 운영), 4. 물품수령(고객인증)",총20개,11,600,550,2890,2019-08-01,1600-5136,대구 북구청,053-665-4314,2019-08-30,3450000,대구광역시 북구,
안심택배함,대구광역시,북구,27230,대구광역시 북구 경대로5길 4,대구광역시 북구 동천동 939,35.8847485512,128.6131924798,00:00,23:59,00:00,23:59,00:00,23:59,48,48,1000,02,"1. 물품주민 및 수령장소 지정(무인택배함), 2. 물품보관(택배기사 인증 및 수취인 핸드폰 입력), 3. 택배도착 문자발송(콜센터 운영), 4. 물품수령(고객인증)",총20개,11,600,550,2890,2019-08-01,1600-5136,대구 북구청,053-665-4314,2019-08-30,3450000,대구광역시 북구,
무인택배함,경기도,과천시,31110,경기도 과천시 관문로 136,경기도 과천시 중앙동 68,37.4331905228,126.9934104797,00:00,23:59,00:00,23:59,00:00,23:59,72,0,0,2,"품 배송 시 휴대폰 문자로 전송되는 택배보관함번호, 인증번호를 확인하여, 해당 보관함에서 전송받은 인증번호를 입력한 뒤 보관함을 열어 물품 수령",대형/01+중형/02+소형/03,01/1+02/4+03/3,01/60+02/60+03/60,01/50+02/50+03/50,01/96+02/48+03/32,2017-02-01,02-2150-3104,과천시 중앙동주민센터,02-2150-3104,2019-11-01,3970000,경기도 과천시,
,경기도,구리시,41310,경기도 구리시 체육관로 137-25,경기도 구리시 교문동 153-1,37.5961625856,127.1351684,,,,,2019-12-,23:59,0,48,1000,02,"물품 배송 시 휴대폰 문자로 전송되는 택배보관함번호, 인증번호를 확인하여, 해당 보관함에서 본인 휴대폰 번호와 전송받은 인증번호를 입력한 뒤 보관함을 열어 물품 수령",대형/01+중형/02,01/8+02/32,01/60+02/60,01/50+02/50,01/45+02/23,2017-12-11,1899-4711,㈜세누,031-550-2262,2019-12-17,3980000,경기도 구리시,
,경기도,구리시,41310,경기도 구리시 검배로 9번길 21,경기도 구리시 수택동 526-2,37.600963,127.1425618,,,,,2019-12-,23:59,0,48,1000,02,"물품 배송 시 휴대폰 문자로 전송되는 택배보관함번호, 인증번호를 확인하여, 해당 보관함에서 본인 휴대폰 번호와 전송받은 인증번호를 입력한 뒤 보관함을 열어 물품 수령",대형/01+중형/02,01/8+02/32,01/60+02/60,01/50+02/50,01/45+02/23,2017-12-11,1899-4711,㈜세누,031-550-2262,2019-12-17,3980000,경기도 구리시,
회천2동행정복지센터,경기도,양주시,41630,"경기도 양주시 평화로1475번길 39, 회천2동행정복지센터 내","경기도 양주시 덕계동 467-8, 회천2동행정복지센터",37.82166163,127.0467626,24:00,24:00,24:00,24:00,24:00,24:00,48,24,1000,01,"물품 배송시 휴대폰 문자로 전송되는 택배보관함 번호, 인증번호를 확인하여 해당 보관함에서 본인 휴대폰 번호와 전송받은 인증번호를 입력한 뒤 보관함을 열어 물품 수령",대형/01+중형/02+소형/03+제어부/04+구급함/05,01/1+02/5+03/15+04/1+05/1,01/60+02/60+03/60+04/60+05/60,01/50+02/50+03/50+04/50+05/50,01/67.5+02/45+03/22.5+04/50+05/50,2018-09-07,1600-5136,양주시청,031-8082-5804,2019-09-03,5590000,경기도 양주시,
엄상1·2통 마을회관,경기도,양주시,41630,"경기도 양주시 엄상동길 38, 엄상1·2통 마을회관 앞","경기도 양주시 고암동 140-8, 엄상1·2통마을회관 앞",37.83139226,127.0682743,24:00,24:00,24:00,24:00,24:00,24:00,48,24,1000,01,"물품 배송시 휴대폰 문자로 전송되는 택배보관함 번호, 인증번호를 확인하여 해당 보관함에서 본인 휴대폰 번호와 전송받은 인증번호를 입력한 뒤 보관함을 열어 물품 수령",대형/01+중형/02+소형/03+제어부/04+구급함/05,01/1+02/5+03/15+04/1+05/1,01/60+02/60+03/60+04/60+05/60,01/50+02/50+03/50+04/50+05/50,01/67.5+02/45+03/22.5+04/50+05/50,2018-09-07,1600-5136,양주시청,031-8082-5804,2019-09-03,5590000,경기도 양주시,
도원지하보도,인천광역시,중구,28110,인천광역시 중구 참외전로 지하 244,,37.468681,126.641669,24:00,24:00,24:00,24:00,24:00,24:00,48,24,1000,02,"물품 배송 시 휴대폰 문자로 전송되는 택배보관함번호, 인증번호를 확인하여, 해당 보관함에서 전송받은 인증번호를 입력한 뒤 보관함을 열어 물품 수령",중형/02+소형/04,02/6+04/12,02/600+04/600,02/500+04/500,02/450+04/225,2016-06-20,1899-4711,인천광역시 중구 주민복지과,032-760-7342,2019-07-25,3490000,인천광역시 중구,
인천광역시 중구청,인천광역시,중구,28110,인천광역시 중구 신포로27번길 80,,37.4740810350,126.6213401434,24:00,24:00,24:00,24:00,24:00,24:00,48,24,1000,02,"물품 배송 시 휴대폰 문자로 전송되는 택배보관함번호, 인증번호를 확인하여, 해당 보관함에서 전송받은 인증번호를 입력한 뒤 보관함을 열어 물품 수령",중형/02+소형/04,02/6+04/12,02/600+04/600,02/500+04/500,02/450+04/225,2018-01-01,1899-4711,인천광역시 중구 주민복지과,032-760-7342,2019-07-25,3490000,인천광역시 중구,
영종복합청사,인천광역시,중구,28110,인천광역시 중구 운남서로 100,,37.4941611735,126.5314849257,24:00,24:00,24:00,24:00,24:00,24:00,48,24,1000,02,"물품 배송 시 휴대폰 문자로 전송되는 택배보관함번호, 인증번호를 확인하여, 해당 보관함에서 전송받은 인증번호를 입력한 뒤 보관함을 열어 물품 수령",중형/02+소형/04,02/6+04/12,02/600+04/600,02/500+04/500,02/450+04/225,2019-01-03,1899-4711,인천광역시 중구 주민복지과,032-760-7342,2019-07-25,3490000,인천광역시 중구,
여성안심택배함,대구광역시,남구,27200,대구광역시 남구 중앙대로22길 100(봉덕3),대구광역시 남구 봉덕동 702-6,35.8424354,128.5959628,00:00,23:59,00:00,23:59,00:00,23:59,48,24,1000,01,"물품 배송 시 휴대폰 문자로 전송되는 택배보관함번호, 인증번호를 확인하여, 해당 보관함에서 본인 휴대폰 번호와 전송받은 인증번호를 입력한 뒤 보관함을 열어 물품 수령",특대형/01+대형/02+중형/03+중소형/04+소형/05+특소형/06,01/1+02/3+03/0+04/12+05/3+06/0,01/55+02/55+03/55+04/55+05/55+06/55,01/50+02/50+03/50+04/50+05/50+06/50,01/900+02/450+03/360+04/300+05/225+06/180,2015-06-15,1599-2740,하이스트시스템,053-664-2263,2019-09-04,3440000,대구광역시 남구,
여성안심택배함,대구광역시,남구,27200,대구광역시 남구 큰골길 53(대명9),대구광역시 남구 대명동 2680-7,35.8372414,128.5790384,00:00,23:59,00:00,23:59,00:00,23:59,48,24,1000,01,"물품 배송 시 휴대폰 문자로 전송되는 택배보관함번호, 인증번호를 확인하여, 해당 보관함에서 본인 휴대폰 번호와 전송받은 인증번호를 입력한 뒤 보관함을 열어 물품 수령",특대형/01+대형/02+중형/03+중소형/04+소형/05+특소형/06,01/0+02/1+03/4+04/0+05/3+06/12,01/55+02/55+03/55+04/55+05/55+06/55,01/50+02/50+03/50+04/50+05/50+06/50,01/900+02/450+03/360+04/300+05/225+06/180,2017-03-15,1599-2740,하이스트시스템,053-664-2263,2019-09-04,3440000,대구광역시 남구,
여성안심택배함,대구광역시,남구,27200,대구광역시 남구 명덕로32길 30(대명2),대구광역시 남구 대명동1827,35.8552846,128.586452,00:00,23:59,00:00,23:59,00:00,23:59,48,24,1000,01,"물품 배송 시 휴대폰 문자로 전송되는 택배보관함번호, 인증번호를 확인하여, 해당 보관함에서 본인 휴대폰 번호와 전송받은 인증번호를 입력한 뒤 보관함을 열어 물품 수령",특대형/01+대형/02+중형/03+중소형/04+소형/05+특소형/06,01/1+02/3+03/0+04/12+05/3+06/1,01/55+02/55+03/55+04/55+05/55+06/55,01/50+02/50+03/50+04/50+05/50+06/50,01/900+02/450+03/360+04/300+05/225+06/180,2018-12-24,1599-2741,하이스트시스템,053-664-2264,2019-09-04,3440000,대구광역시 남구,
여성안심택배함,대구광역시,남구,27200,대구광역시 남구 대명남로73(대명6),대구광역시 남구 대명동1086-1,35.8350915859,128.566078,00:00,23:59,00:00,23:59,00:00,23:59,48,24,1000,01,"물품 배송 시 휴대폰 문자로 전송되는 택배보관함번호, 인증번호를 확인하여, 해당 보관함에서 본인 휴대폰 번호와 전송받은 인증번호를 입력한 뒤 보관함을 열어 물품 수령",특대형/01+대형/02+중형/03+중소형/04+소형/05+특소형/06,01/0+02/1+03/4+04/0+05/3+06/13,01/55+02/55+03/55+04/55+05/55+06/55,01/50+02/50+03/50+04/50+05/50+06/50,01/900+02/450+03/360+04/300+05/225+06/180,2018-12-24,1599-2742,하이스트시스템,053-664-2265,2019-09-04,3440000,대구광역시 남구,
여성안심택배함,대구광역시,남구,27200,대구광역시 남구 관문시장4길53(대명11),대구광역시 남구 대명동1180,35.836240376,128.560634137,00:00,23:59,00:00,23:59,00:00,23:59,48,24,1000,01,"물품 배송 시 휴대폰 문자로 전송되는 택배보관함번호, 인증번호를 확인하여, 해당 보관함에서 본인 휴대폰 번호와 전송받은 인증번호를 입력한 뒤 보관함을 열어 물품 수령",특대형/01+대형/02+중형/03+중소형/04+소형/05+특소형/06,01/1+02/3+03/0+04/12+05/3+06/2,01/55+02/55+03/55+04/55+05/55+06/55,01/50+02/50+03/50+04/50+05/50+06/50,01/900+02/450+03/360+04/300+05/225+06/180,2018-12-24,1599-2743,하이스트시스템,053-664-2266,2019-09-04,3440000,대구광역시 남구,
갈현1동주민센터,서울특별시,은평구,11380,서울특별시 은평구 갈현로 301 안심택배함,,37.6236889300,126.9166790000,00:00,24:00,00:00,24:00,00:00,24:00,48,24,1000,01,"물품 배송 시 휴대폰 문자로 전송되는 택배보관함번호, 인증번호를 확인하여, 해당 보관함에서 본인 휴대폰 번호와 전송받은 인증번호를 입력한 뒤 보관함을 열어 물품 수령",소형/04,25,55,45,22,2013-01-01,1899-4708,새누,02-865-8384,2019-06-30,3110000,서울특별시 은평구,
구산동주민센터,서울특별시,은평구,11380,서울특별시 은평구 갈현로 17길 10 안심택배함,,37.6117551700,126.9103506000,00:00,24:00,00:00,24:00,00:00,24:00,48,24,1000,01,"물품 배송 시 휴대폰 문자로 전송되는 택배보관함번호, 인증번호를 확인하여, 해당 보관함에서 본인 휴대폰 번호와 전송받은 인증번호를 입력한 뒤 보관함을 열어 물품 수령",소형/04,19,55,45,22,2015-01-01,1899-4708,새누,02-865-8384,2019-06-30,3110000,서울특별시 은평구,
녹번119안전센터청사,서울특별시,은평구,11380,서울특별시 은평구 은평로 245 안심택배함,,37.6011057900,126.9351485000,00:00,24:00,00:00,24:00,00:00,24:00,48,24,1000,01,"물품 배송 시 휴대폰 문자로 전송되는 택배보관함번호, 인증번호를 확인하여, 해당 보관함에서 본인 휴대폰 번호와 전송받은 인증번호를 입력한 뒤 보관함을 열어 물품 수령",소형/04,19,55,45,22,2014-01-01,1899-4708,새누,02-865-8384,2019-06-30,3110000,서울특별시 은평구,
불광1치안센터,서울특별시,은평구,11380,서울특별시 은평구 불광로 129 안심택배함,,37.6183045300,126.9329326000,00:00,24:00,00:00,24:00,00:00,24:00,48,24,1000,01,"물품 배송 시 휴대폰 문자로 전송되는 택배보관함번호, 인증번호를 확인하여, 해당 보관함에서 본인 휴대폰 번호와 전송받은 인증번호를 입력한 뒤 보관함을 열어 물품 수령",소형/04,20,55,45,22,2014-01-01,1899-4708,새누,02-865-8384,2019-06-30,3110000,서울특별시 은평구,
신사종합사회복지관,서울특별시,은평구,11380,서울특별시 은평구 은평로 38 안심택배함,,37.5980494400,126.9121923000,00:00,24:00,00:00,24:00,00:00,24:00,48,24,1000,01,"물품 배송 시 휴대폰 문자로 전송되는 택배보관함번호, 인증번호를 확인하여, 해당 보관함에서 본인 휴대폰 번호와 전송받은 인증번호를 입력한 뒤 보관함을 열어 물품 수령",소형/04,19,55,45,22,2014-01-01,1899-4708,새누,02-865-8384,2019-06-30,3110000,서울특별시 은평구,
역촌동주민센터,서울특별시,은평구,11380,서울특별시 은평구 연서로 59 안심택배함,,37.6044014200,126.9151011000,00:00,24:00,00:00,24:00,00:00,24:00,48,24,1000,01,"물품 배송 시 휴대폰 문자로 전송되는 택배보관함번호, 인증번호를 확인하여, 해당 보관함에서 본인 휴대폰 번호와 전송받은 인증번호를 입력한 뒤 보관함을 열어 물품 수령",소형/04,19,55,45,22,2013-01-01,1899-4708,새누,02-865-8384,2019-06-30,3110000,서울특별시 은평구,
증산정보도서관,서울특별시,은평구,11380,서울특별시 은평구 증산로5길 6 안심택배함,,37.5828072900,126.9076699000,00:00,24:00,00:00,24:00,00:00,24:00,48,24,1000,01,"물품 배송 시 휴대폰 문자로 전송되는 택배보관함번호, 인증번호를 확인하여, 해당 보관함에서 본인 휴대폰 번호와 전송받은 인증번호를 입력한 뒤 보관함을 열어 물품 수령",소형/04,37,55,45,22,2013-01-01,1899-4708,새누,02-865-8384,2019-06-30,3110000,서울특별시 은평구,
대조동꿈나무어린이도서관,서울특별시,은평구,11380,서울특별시 은평구 연서로 20길 24-6 안심택배함,,37.6138235900,126.9207184000,00:00,24:00,00:00,24:00,00:00,24:00,48,24,1000,01,"물품 배송 시 휴대폰 문자로 전송되는 택배보관함번호, 인증번호를 확인하여, 해당 보관함에서 본인 휴대폰 번호와 전송받은 인증번호를 입력한 뒤 보관함을 열어 물품 수령",소형/04,16,55,45,22,2017-01-01,1899-4708,새누,02-865-8384,2019-06-30,3110000,서울특별시 은평구,
연신내지구대,서울특별시,은평구,11380,서울특별시 은평구 갈현로 195 안심택배함,,37.6152098600,126.9127129000,00:00,24:00,00:00,24:00,00:00,24:00,48,24,1000,01,"물품 배송 시 휴대폰 문자로 전송되는 택배보관함번호, 인증번호를 확인하여, 해당 보관함에서 본인 휴대폰 번호와 전송받은 인증번호를 입력한 뒤 보관함을 열어 물품 수령",소형/04,16,55,45,22,2016-01-01,1899-4708,새누,02-865-8384,2019-06-30,3110000,서울특별시 은평구,
불광보건소,서울특별시,은평구,11380,서울특별시 은평구 연서로24길 11 안심택배함,,37.6159264400,126.9201103000,00:00,24:00,00:00,24:00,00:00,24:00,48,24,1000,01,"물품 배송 시 휴대폰 문자로 전송되는 택배보관함번호, 인증번호를 확인하여, 해당 보관함에서 본인 휴대폰 번호와 전송받은 인증번호를 입력한 뒤 보관함을 열어 물품 수령",소형/04,16,55,45,22,2016-01-01,1899-4708,새누,02-865-8384,2019-06-30,3110000,서울특별시 은평구,
아인스하임,서울특별시,은평구,11380,서울특별시 은평구 은평터널로7가길 8 안심택배함,,37.5920921000,126.9032943000,00:00,24:00,00:00,24:00,00:00,24:00,48,24,1000,01,"물품 배송 시 휴대폰 문자로 전송되는 택배보관함번호, 인증번호를 확인하여, 해당 보관함에서 본인 휴대폰 번호와 전송받은 인증번호를 입력한 뒤 보관함을 열어 물품 수령",소형/04,13,55,45,22,2016-01-01,1899-4708,새누,02-865-8384,2019-06-30,3110000,서울특별시 은평구,
여성안심 무인방범택배함,경기도,평택시,41220,경기도 평택시 경기대로 1366,,37.0658098486,127.0650903035,23:59,23:59,23:59,23:59,23:59,23:59,48,48,1000,02,민원의 휴대폰 번호와 이용자 인증을 통해 택배를 주고 받을수 있도록하며 원격 서비스를 통해 택배서비스에 필요한 모든 기능을 제공,1)대형01,84,60,215,230,2018-08-21,1600-0764,평택시 여성가족과,031-8024-2914,2019-09-25,3910000,경기도 평택시,
여성안심 무인방범택배함,경기도,평택시,41220,경기도 평택시 서동대로 3825,,36.9946390505,127.1339684966,23:59,23:59,23:59,23:59,23:59,23:59,48,48,1000,02,민원의 휴대폰 번호와 이용자 인증을 통해 택배를 주고 받을수 있도록하며 원격 서비스를 통해 택배서비스에 필요한 모든 기능을 제공,2)소형03,20,60,120,305,2018-08-21,1600-0764,평택시 여성가족과,031-8024-2914,2019-09-25,3910000,경기도 평택시,
여성안심 무인방범택배함,경기도,평택시,41220,경기도 평택시 포승읍 여술로47,,36.9893614507,126.8474031199,23:59,23:59,23:59,23:59,23:59,23:59,48,48,1000,02,민원의 휴대폰 번호와 이용자 인증을 통해 택배를 주고 받을수 있도록하며 원격 서비스를 통해 택배서비스에 필요한 모든 기능을 제공,20대형01,84,60,215,230,2018-08-21,1600-0764,평택시 여성가족과,031-8024-2914,2019-09-25,3910000,경기도 평택시,
중구청,대구광역시,중구,27110,대구광역시 중구 국채보상로139길 1,,35.86932522,128.6061572,00:00,23:59,00:00,23:59,00:00,23:59,0,48,1000,2,"물품배송시 휴대폰 문자로 전송되는 택배보관함 번호, 인증번호를 확인하여 해당 보관함에서 본인 휴대폰 번호와 전송받은 인증번호를 입력한 뒤 보관함을 열어 물품 수령",대형/01+중형/02+중소형/03+소형/04,01/01+02/03+03/12+04/03,01/50+02/50+03/50+04/50,01/52+02/44+03/52+04/44,01/44+02/35+03/22+04/17,2015-06-20,1599-2740,중구청 안전총괄과,05-661-2253,2019-11-21,6270000,대구광역시,
서문시장 상인연합회,대구광역시,중구,27110,대구광역시 중구 큰장로26길 45,,35.86890863,128.5807734,00:00,23:59,00:00,23:59,00:00,23:59,0,48,1000,2,"물품배송시 휴대폰 문자로 전송되는 택배보관함 번호, 인증번호를 확인하여 해당 보관함에서 본인 휴대폰 번호와 전송받은 인증번호를 입력한 뒤 보관함을 열어 물품 수령",대형/01+중형/02+중소형/03+소형/04,01/01+02/03+03/12+04/03,01/50+02/50+03/50+04/50,01/52+02/44+03/52+04/44,01/44+02/35+03/22+04/17,2019-09-28,1599-2740,중구청 안전총괄과,05-661-2253,2019-11-21,6270000,대구광역시,
동구청,대구광역시,동구,27140,대구광역시 동구 아양로 207,,35.88655942,128.6354741,00:00,23:59,00:00,23:59,00:00,23:59,0,48,1000,2,"물품배송시 휴대폰 문자로 전송되는 택배보관함 번호, 인증번호를 확인하여 해당 보관함에서 본인 휴대폰 번호와 전송받은 인증번호를 입력한 뒤 보관함을 열어 물품 수령",대형/01+중형/02+중소형/03+소형/04,01/01+02/03+03/12+04/03,01/50+02/50+03/50+04/50,01/52+02/44+03/52+04/44,01/44+02/35+03/22+04/17,2015-06-20,1599-2740,동구청 안전총괄과,053-662-2897,2019-11-21,6270000,대구광역시,
동촌동주민센터,대구광역시,동구,27140,대구광역시 동구 동촌로11길 5,,35.88993781,128.6496203,00:00,23:59,00:00,23:59,00:00,23:59,0,48,1000,2,"물품배송시 휴대폰 문자로 전송되는 택배보관함 번호, 인증번호를 확인하여 해당 보관함에서 본인 휴대폰 번호와 전송받은 인증번호를 입력한 뒤 보관함을 열어 물품 수령",대형/01+중형/02+중소형/03+소형/04,01/01+02/04+03/03+04/12,01/50+02/50+03/50+04/50,01/52+02/44+03/52+04/44,01/44+02/35+03/22+04/17,2015-06-20,1599-2740,동구청 안전총괄과,053-662-2897,2019-11-21,6270000,대구광역시,
효목2동주민센터,대구광역시,동구,27140,대구광역시 동구 화랑로25길 45,,35.8781522,128.6412466,00:00,23:59,00:00,23:59,00:00,23:59,0,48,1000,2,"물품배송시 휴대폰 문자로 전송되는 택배보관함 번호, 인증번호를 확인하여 해당 보관함에서 본인 휴대폰 번호와 전송받은 인증번호를 입력한 뒤 보관함을 열어 물품 수령",대형/01+중형/02+중소형/03+소형/04,01/01+02/03+03/12+04/03,01/50+02/50+03/50+04/50,01/52+02/44+03/52+04/44,01/44+02/35+03/22+04/17,2015-06-20,1599-2740,동구청 안전총괄과,053-662-2897,2019-11-21,6270000,대구광역시,
신암4동 행정복지센터,대구광역시,동구,27140,대구광역시 동구 신암남로23길 53,,35.8850364,128.6293294,00:00,23:59,00:00,23:59,00:00,23:59,0,48,1000,2,"물품배송시 휴대폰 문자로 전송되는 택배보관함 번호, 인증번호를 확인하여 해당 보관함에서 본인 휴대폰 번호와 전송받은 인증번호를 입력한 뒤 보관함을 열어 물품 수령",대형/01+중형/02+중소형/03+소형/04,01/01+02/03+03/12+04/03,01/50+02/50+03/50+04/50,01/52+02/44+03/52+04/44,01/44+02/35+03/22+04/17,2017-12-18,1599-2740,동구청 안전총괄과,053-662-2897,2019-11-21,6270000,대구광역시,
지저동 행정복지센터,대구광역시,동구,27140,대구광역시 동구 해동로3길 80,,35.8933914,128.6382814,00:00,23:59,00:00,23:59,00:00,23:59,0,48,1000,2,"물품배송시 휴대폰 문자로 전송되는 택배보관함 번호, 인증번호를 확인하여 해당 보관함에서 본인 휴대폰 번호와 전송받은 인증번호를 입력한 뒤 보관함을 열어 물품 수령",대형/01+중형/02+중소형/03+소형/04,01/01+02/04+03/03+04/12,01/50+02/50+03/50+04/50,01/52+02/44+03/52+04/44,01/44+02/35+03/22+04/17,2017-12-18,1599-2740,동구청 안전총괄과,053-662-2897,2019-11-21,6270000,대구광역시,
해안동 행정복지센터,대구광역시,동구,27140,대구광역시 동구 방촌로29길 46,,35.8820761,128.6716797,00:00,23:59,00:00,23:59,00:00,23:59,0,48,1000,2,"물품배송시 휴대폰 문자로 전송되는 택배보관함 번호, 인증번호를 확인하여 해당 보관함에서 본인 휴대폰 번호와 전송받은 인증번호를 입력한 뒤 보관함을 열어 물품 수령",대형/01+중형/02+중소형/03+소형/04,01/01+02/04+03/03+04/12,01/50+02/50+03/50+04/50,01/52+02/44+03/52+04/44,01/44+02/35+03/22+04/17,2017-12-18,1599-2740,동구청 안전총괄과,053-662-2897,2019-11-21,6270000,대구광역시,
대구은행서구청출장소,대구광역시,서구,27170,대구광역시 서구 국채보상로 257,,35.87232184,128.5592204,00:00,23:59,00:00,23:59,00:00,23:59,0,48,1000,2,"물품배송시 휴대폰 문자로 전송되는 택배보관함 번호, 인증번호를 확인하여 해당 보관함에서 본인 휴대폰 번호와 전송받은 인증번호를 입력한 뒤 보관함을 열어 물품 수령",대형/01+중형/02+중소형/03+소형/04,01/01+02/04+03/03+04/12,01/50+02/50+03/50+04/50,01/52+02/44+03/52+04/44,01/44+02/35+03/22+04/17,2015-06-20,1599-2740,서구청 건설안전과,053-663-2913,2019-11-21,6270000,대구광역시,
평리1동주민센터,대구광역시,서구,27170,대구광역시 서구 문화로 280,,35.87559726,128.5632981,00:00,23:59,00:00,23:59,00:00,23:59,0,48,1000,2,"물품배송시 휴대폰 문자로 전송되는 택배보관함 번호, 인증번호를 확인하여 해당 보관함에서 본인 휴대폰 번호와 전송받은 인증번호를 입력한 뒤 보관함을 열어 물품 수령",대형/01+중형/02+중소형/03+소형/04,01/01+02/04+03/03+04/12,01/50+02/50+03/50+04/50,01/52+02/44+03/52+04/44,01/44+02/35+03/22+04/17,2015-06-20,1599-2740,서구청 건설안전과,053-663-2913,2019-11-21,6270000,대구광역시,
서구문화회관,대구광역시,서구,27170,대구광역시 서구 당산로86길 13,,35.87519337,128.5482753,00:00,23:59,00:00,23:59,00:00,23:59,0,48,1000,2,"물품배송시 휴대폰 문자로 전송되는 택배보관함 번호, 인증번호를 확인하여 해당 보관함에서 본인 휴대폰 번호와 전송받은 인증번호를 입력한 뒤 보관함을 열어 물품 수령",대형/01+중형/02+중소형/03+소형/04,01/01+02/04+03/03+04/12,01/50+02/50+03/50+04/50,01/52+02/44+03/52+04/44,01/44+02/35+03/22+04/17,2015-06-20,1599-2740,서구청 건설안전과,053-663-2913,2019-11-21,6270000,대구광역시,
평리2동 행정복지센터,대구광역시,서구,27170,대구광역시 서구 국채보상로60길 6,,35.8712414,128.5636881,00:00,23:59,00:00,23:59,00:00,23:59,0,48,1000,2,"물품배송시 휴대폰 문자로 전송되는 택배보관함 번호, 인증번호를 확인하여 해당 보관함에서 본인 휴대폰 번호와 전송받은 인증번호를 입력한 뒤 보관함을 열어 물품 수령",대형/01+중형/02+중소형/03+소형/04,01/01+02/03+03/12+04/03,01/50+02/50+03/50+04/50,01/52+02/44+03/52+04/44,01/44+02/35+03/22+04/17,2017-12-18,1599-2740,서구청 건설안전과,053-663-2913,2019-11-21,6270000,대구광역시,
달성토성마을,대구광역시,서구,27170,대구광역시 서구 국채보상로83길 21,,35.87331589,128.5753737,00:00,23:59,00:00,23:59,00:00,23:59,0,48,1000,2,"물품배송시 휴대폰 문자로 전송되는 택배보관함 번호, 인증번호를 확인하여 해당 보관함에서 본인 휴대폰 번호와 전송받은 인증번호를 입력한 뒤 보관함을 열어 물품 수령",대형/01+중형/02+중소형/03+소형/04,01/01+02/03+03/12+04/03,01/50+02/50+03/50+04/50,01/52+02/44+03/52+04/44,01/44+02/35+03/22+04/17,2017-12-18,1599-2740,서구청 건설안전과,053-663-2913,2019-11-21,6270000,대구광역시,
평리3동 행정복지센터,대구광역시,서구,27170,대구광역시 서구 문화로 261,,35.87595437,128.5613021,00:00,23:59,00:00,23:59,00:00,23:59,0,48,1000,2,"물품배송시 휴대폰 문자로 전송되는 택배보관함 번호, 인증번호를 확인하여 해당 보관함에서 본인 휴대폰 번호와 전송받은 인증번호를 입력한 뒤 보관함을 열어 물품 수령",대형/01+중형/02+중소형/03+소형/04,01/01+02/03+03/12+04/03,01/50+02/50+03/50+04/50,01/52+02/44+03/52+04/44,01/44+02/35+03/22+04/17,2018-10-08,1599-2740,서구청 건설안전과,053-663-2913,2019-11-21,6270000,대구광역시,
대명9동주민센터,대구광역시,남구,27200,대구광역시 남구 큰골길 53,,35.8372414,128.5790384,00:00,23:59,00:00,23:59,00:00,23:59,0,48,1000,2,"물품배송시 휴대폰 문자로 전송되는 택배보관함 번호, 인증번호를 확인하여 해당 보관함에서 본인 휴대폰 번호와 전송받은 인증번호를 입력한 뒤 보관함을 열어 물품 수령",대형/01+중형/02+중소형/03+소형/04,01/01+02/04+03/03+04/12,01/50+02/50+03/50+04/50,01/52+02/44+03/52+04/44,01/44+02/35+03/22+04/17,2015-06-20,1599-2740,남구청 미래안전과,053-664-2263,2019-11-21,6270000,대구광역시,
봉덕3동주민센터,대구광역시,남구,27200,대구광역시 남구 중앙대로22길 100,,35.8424354,128.5959628,00:00,23:59,00:00,23:59,00:00,23:59,0,48,1000,2,"물품배송시 휴대폰 문자로 전송되는 택배보관함 번호, 인증번호를 확인하여 해당 보관함에서 본인 휴대폰 번호와 전송받은 인증번호를 입력한 뒤 보관함을 열어 물품 수령",대형/01+중형/02+중소형/03+소형/04,01/01+02/03+03/12+04/03,01/50+02/50+03/50+04/50,01/52+02/44+03/52+04/44,01/44+02/35+03/22+04/17,2015-06-20,1599-2740,남구청 미래안전과,053-664-2263,2019-11-21,6270000,대구광역시,
대명2동 행정복지센터,대구광역시,남구,27200,대구광역시 남구 명덕로32길 30,,35.8552846,128.5862413,00:00,23:59,00:00,23:59,00:00,23:59,0,48,1000,2,"물품배송시 휴대폰 문자로 전송되는 택배보관함 번호, 인증번호를 확인하여 해당 보관함에서 본인 휴대폰 번호와 전송받은 인증번호를 입력한 뒤 보관함을 열어 물품 수령",대형/01+중형/02+중소형/03+소형/04,01/01+02/04+03/03+04/12,01/50+02/50+03/50+04/50,01/52+02/44+03/52+04/44,01/44+02/35+03/22+04/17,2017-12-18,1599-2740,남구청 미래안전과,053-664-2263,2019-11-21,6270000,대구광역시,
대명6동 행정복지센터,대구광역시,남구,27200,대구광역시 남구 대명남로 73,,35.83509159,128.5660959,00:00,23:59,00:00,23:59,00:00,23:59,0,48,1000,2,"물품배송시 휴대폰 문자로 전송되는 택배보관함 번호, 인증번호를 확인하여 해당 보관함에서 본인 휴대폰 번호와 전송받은 인증번호를 입력한 뒤 보관함을 열어 물품 수령",대형/01+중형/02+중소형/03+소형/04,01/01+02/04+03/03+04/12,01/50+02/50+03/50+04/50,01/52+02/44+03/52+04/44,01/44+02/35+03/22+04/17,2017-12-18,1599-2740,남구청 미래안전과,053-664-2263,2019-11-21,6270000,대구광역시,
대명11동 행정복지센터,대구광역시,남구,27200,대구광역시 남구 관문시장4길 53,,35.83624038,128.5606341,00:00,23:59,00:00,23:59,00:00,23:59,0,48,1000,2,"물품배송시 휴대폰 문자로 전송되는 택배보관함 번호, 인증번호를 확인하여 해당 보관함에서 본인 휴대폰 번호와 전송받은 인증번호를 입력한 뒤 보관함을 열어 물품 수령",대형/01+중형/02+중소형/03+소형/04,01/01+02/04+03/03+04/12,01/50+02/50+03/50+04/50,01/52+02/44+03/52+04/44,01/44+02/35+03/22+04/17,2017-12-18,1599-2740,남구청 미래안전과,053-664-2263,2019-11-21,6270000,대구광역시,
대명동 계명대학 정문,대구광역시,남구,27200,대구광역시 남구 계명중앙1길 22-2(노상),,35.85636062,128.5810821,00:00,23:59,00:00,23:59,00:00,23:59,0,48,1000,2,"물품배송시 휴대폰 문자로 전송되는 택배보관함 번호, 인증번호를 확인하여 해당 보관함에서 본인 휴대폰 번호와 전송받은 인증번호를 입력한 뒤 보관함을 열어 물품 수령",중형02+소형044,02/03+04/08,02/60+04/60,02/45+04/23,02/50+04/50,2019-09-12,1600-5136,북구청 도시안전과,053-665-4314,2019-11-21,6270000,대구광역시,
경북대학교 쌈지공원,대구광역시,남구,27200,대구광역시 남구 중앙대로45길 10-2(노상),,35.85332731,128.5899613,00:00,23:59,00:00,23:59,00:00,23:59,0,48,1000,2,"물품배송시 휴대폰 문자로 전송되는 택배보관함 번호, 인증번호를 확인하여 해당 보관함에서 본인 휴대폰 번호와 전송받은 인증번호를 입력한 뒤 보관함을 열어 물품 수령",중형02+소형044,02/03+04/08,02/60+04/60,02/45+04/23,02/50+04/50,2019-09-12,1600-5136,북구청 도시안전과,053-665-4314,2019-11-21,6270000,대구광역시,
산격3동주민센터,대구광역시,북구,27230,대구광역시 북구 대학로15길 16,,35.8935456,128.6083117,00:00,23:59,00:00,23:59,00:00,23:59,0,48,1000,2,"물품배송시 휴대폰 문자로 전송되는 택배보관함 번호, 인증번호를 확인하여 해당 보관함에서 본인 휴대폰 번호와 전송받은 인증번호를 입력한 뒤 보관함을 열어 물품 수령",대형/01+중형/02+중소형/03+소형/04,01/01+02/04+03/03+04/12,01/50+02/50+03/50+04/50,01/52+02/44+03/52+04/44,01/44+02/35+03/22+04/17,2015-06-20,1599-2740,북구청 도시안전과,053-665-4314,2019-11-21,6270000,대구광역시,
무태조야동주민센터,대구광역시,북구,27230,대구광역시 북구 호국로43길 20,,35.9213327,128.5970475,00:00,23:59,00:00,23:59,00:00,23:59,0,48,1000,2,"물품배송시 휴대폰 문자로 전송되는 택배보관함 번호, 인증번호를 확인하여 해당 보관함에서 본인 휴대폰 번호와 전송받은 인증번호를 입력한 뒤 보관함을 열어 물품 수령",대형/01+중형/02+중소형/03+소형/04,01/01+02/04+03/03+04/12,01/50+02/50+03/50+04/50,01/52+02/44+03/52+04/44,01/44+02/35+03/22+04/17,2015-06-20,1599-2740,북구청 도시안전과,053-665-4314,2019-11-21,6270000,대구광역시,
동천동주민센터,대구광역시,북구,27230,대구광역시 북구 대천로 81,,35.937318,128.5581853,00:00,23:59,00:00,23:59,00:00,23:59,0,48,1000,2,"물품배송시 휴대폰 문자로 전송되는 택배보관함 번호, 인증번호를 확인하여 해당 보관함에서 본인 휴대폰 번호와 전송받은 인증번호를 입력한 뒤 보관함을 열어 물품 수령",대형/01+중형/02+중소형/03+소형/04,01/01+02/03+03/12+04/03,01/50+02/50+03/50+04/50,01/52+02/44+03/52+04/44,01/44+02/35+03/22+04/17,2015-06-20,1599-2740,북구청 도시안전과,053-665-4314,2019-11-21,6270000,대구광역시,
산격4동 주민센터,대구광역시,북구,27230,대구광역시 북구 대구체육관로 48,,35.8922329,128.6042817,00:00,23:59,00:00,23:59,00:00,23:59,0,48,1000,2,"물품배송시 휴대폰 문자로 전송되는 택배보관함 번호, 인증번호를 확인하여 해당 보관함에서 본인 휴대폰 번호와 전송받은 인증번호를 입력한 뒤 보관함을 열어 물품 수령",대형/01+중형/02+중소형/03+소형/04,01/01+02/03+03/12+04/03,01/50+02/50+03/50+04/50,01/52+02/44+03/52+04/44,01/44+02/35+03/22+04/17,2017-12-18,1599-2740,북구청 도시안전과,053-665-4314,2019-11-21,6270000,대구광역시,
구암동 주민센터,대구광역시,북구,27230,대구광역시 북구 구암서로 32,,35.9389234,128.5660435,00:00,23:59,00:00,23:59,00:00,23:59,0,48,1000,2,"물품배송시 휴대폰 문자로 전송되는 택배보관함 번호, 인증번호를 확인하여 해당 보관함에서 본인 휴대폰 번호와 전송받은 인증번호를 입력한 뒤 보관함을 열어 물품 수령",대형/01+중형/02+중소형/03+소형/04,01/01+02/04+03/03+04/12,01/50+02/50+03/50+04/50,01/52+02/44+03/52+04/44,01/44+02/35+03/22+04/17,2017-12-18,1599-2740,북구청 도시안전과,053-665-4314,2019-11-21,6270000,대구광역시,
경북대학교 면학관 담장,대구광역시,북구,27230,대구광역시 북구 대현로 19길 54(노상),,35.8861712,128.6113357,00:00,23:59,00:00,23:59,00:00,23:59,0,48,1000,2,"물품배송시 휴대폰 문자로 전송되는 택배보관함 번호, 인증번호를 확인하여 해당 보관함에서 본인 휴대폰 번호와 전송받은 인증번호를 입력한 뒤 보관함을 열어 물품 수령",중형02+소형044,02/03+04/08,02/60+04/60,02/45+04/23,02/50+04/50,2017-12-18,1600-5136,북구청 도시안전과,053-665-4314,2019-11-21,6270000,대구광역시,
경북대학교 생물학관 담장,대구광역시,북구,27230,대구광역시 북구 대현로 9길20-1(노상),,35.88659512,128.6055846,00:00,23:59,00:00,23:59,00:00,23:59,0,48,1000,2,"물품배송시 휴대폰 문자로 전송되는 택배보관함 번호, 인증번호를 확인하여 해당 보관함에서 본인 휴대폰 번호와 전송받은 인증번호를 입력한 뒤 보관함을 열어 물품 수령",중형02+소형044,02/03+04/08,02/60+04/60,02/45+04/23,02/50+04/50,2017-12-18,1600-5136,북구청 도시안전과,053-665-4314,2019-11-21,6270000,대구광역시,
경북대학교 테크노파크 정문,대구광역시,북구,27230,대구광역시 북구 경대로 17길 47-1(노상),,35.89263207,128.6147744,00:00,23:59,00:00,23:59,00:00,23:59,0,48,1000,2,"물품배송시 휴대폰 문자로 전송되는 택배보관함 번호, 인증번호를 확인하여 해당 보관함에서 본인 휴대폰 번호와 전송받은 인증번호를 입력한 뒤 보관함을 열어 물품 수령",중형02+소형044,02/03+04/08,02/60+04/60,02/45+04/23,02/50+04/50,2017-12-18,1600-5136,북구청 도시안전과,053-665-4314,2019-11-21,6270000,대구광역시,
경북대학교 쌈지공원,대구광역시,북구,27230,대구광역시 북구 대학로 9길 2(노상),,35.89104932,128.6059315,00:00,23:59,00:00,23:59,00:00,23:59,0,48,1000,2,"물품배송시 휴대폰 문자로 전송되는 택배보관함 번호, 인증번호를 확인하여 해당 보관함에서 본인 휴대폰 번호와 전송받은 인증번호를 입력한 뒤 보관함을 열어 물품 수령",중형02+소형044,02/03+04/08,02/60+04/60,02/45+04/23,02/50+04/50,2017-12-18,1600-5136,북구청 도시안전과,053-665-4314,2019-11-21,6270000,대구광역시,
장미공원 주차장,대구광역시,북구,27230,대구광역시 북구 경진로 47(노상),,35.89326455,128.6170598,00:00,23:59,00:00,23:59,00:00,23:59,0,48,1000,2,"물품배송시 휴대폰 문자로 전송되는 택배보관함 번호, 인증번호를 확인하여 해당 보관함에서 본인 휴대폰 번호와 전송받은 인증번호를 입력한 뒤 보관함을 열어 물품 수령",중형02+소형044,02/03+04/08,02/60+04/60,02/45+04/23,02/50+04/50,2017-12-18,1600-5136,북구청 도시안전과,053-665-4314,2019-11-21,6270000,대구광역시,
경북대학교 정문,대구광역시,북구,27230,대구광역시 북구 경대로5길 4(노상),,35.88474855,128.6131925,00:00,23:59,00:00,23:59,00:00,23:59,0,48,1000,2,"물품배송시 휴대폰 문자로 전송되는 택배보관함 번호, 인증번호를 확인하여 해당 보관함에서 본인 휴대폰 번호와 전송받은 인증번호를 입력한 뒤 보관함을 열어 물품 수령",중형02+소형044,02/03+04/08,02/60+04/60,02/45+04/23,02/50+04/50,2019-08-24,1600-5136,북구청 도시안전과,053-665-4314,2019-11-21,6270000,대구광역시,
북대구농협 산격지점,대구광역시,북구,27230,대구광역시 북구 대불서길 4(노상),,35.90040665,128.6150741,00:00,23:59,00:00,23:59,00:00,23:59,0,48,1000,2,"물품배송시 휴대폰 문자로 전송되는 택배보관함 번호, 인증번호를 확인하여 해당 보관함에서 본인 휴대폰 번호와 전송받은 인증번호를 입력한 뒤 보관함을 열어 물품 수령",중형02+소형044,02/03+04/08,02/60+04/60,02/45+04/23,02/50+04/50,2019-08-24,1600-5136,북구청 도시안전과,053-665-4314,2019-11-21,6270000,대구광역시,
영진전문대 생활관,대구광역시,북구,27230,대구광역시 북구 동북로53길 25(노상),,35.89526449,128.6213798,00:00,23:59,00:00,23:59,00:00,23:59,0,48,1000,2,"물품배송시 휴대폰 문자로 전송되는 택배보관함 번호, 인증번호를 확인하여 해당 보관함에서 본인 휴대폰 번호와 전송받은 인증번호를 입력한 뒤 보관함을 열어 물품 수령",중형02+소형044,02/03+04/08,02/60+04/60,02/45+04/23,02/50+04/50,2019-08-26,1600-5136,북구청 도시안전과,053-665-4314,2019-11-21,6270000,대구광역시,
샛별어린이공원,대구광역시,북구,27230,대구광역시 북구 태암로6길 16-2(노상),,35.92732892,128.5497298,00:00,23:59,00:00,23:59,00:00,23:59,0,48,1000,2,"물품배송시 휴대폰 문자로 전송되는 택배보관함 번호, 인증번호를 확인하여 해당 보관함에서 본인 휴대폰 번호와 전송받은 인증번호를 입력한 뒤 보관함을 열어 물품 수령",중형02+소형044,02/03+04/08,02/60+04/60,02/45+04/23,02/50+04/50,2019-08-17,1600-5136,북구청 도시안전과,053-665-4314,2019-11-21,6270000,대구광역시,
오뚜기어린이공원,대구광역시,북구,27230,대구광역시 북구 대천로18길 14-22(노상),,35.93659373,128.5577204,00:00,23:59,00:00,23:59,00:00,23:59,0,48,1000,2,"물품배송시 휴대폰 문자로 전송되는 택배보관함 번호, 인증번호를 확인하여 해당 보관함에서 본인 휴대폰 번호와 전송받은 인증번호를 입력한 뒤 보관함을 열어 물품 수령",중형02+소형044,02/03+04/08,02/60+04/60,02/45+04/23,02/50+04/50,2019-08-17,1600-5136,북구청 도시안전과,053-665-4314,2019-11-21,6270000,대구광역시,
만촌1동주민센터,대구광역시,수성구,27290,대구광역시 수성구 국채보상로 1001,,35.86627549,128.6400522,00:00,23:59,00:00,23:59,00:00,23:59,0,48,1000,2,"물품배송시 휴대폰 문자로 전송되는 택배보관함 번호, 인증번호를 확인하여 해당 보관함에서 본인 휴대폰 번호와 전송받은 인증번호를 입력한 뒤 보관함을 열어 물품 수령",대형/01+중형/02+중소형/03+소형/04,01/01+02/03+03/12+04/03,01/50+02/50+03/50+04/50,01/52+02/44+03/52+04/44,01/44+02/35+03/22+04/17,2015-06-20,1599-2740,수성구청 안전총괄과,053-666-2964,2019-11-21,6270000,대구광역시,
만촌3동주민센터,대구광역시,수성구,27290,대구광역시 수성구 교학로2길 45,,35.8555259,128.6505781,00:00,23:59,00:00,23:59,00:00,23:59,0,48,1000,2,"물품배송시 휴대폰 문자로 전송되는 택배보관함 번호, 인증번호를 확인하여 해당 보관함에서 본인 휴대폰 번호와 전송받은 인증번호를 입력한 뒤 보관함을 열어 물품 수령",대형/01+중형/02+중소형/03+소형/04,01/01+02/04+03/03+04/12,01/50+02/50+03/50+04/50,01/52+02/44+03/52+04/44,01/44+02/35+03/22+04/17,2015-06-20,1599-2740,수성구청 안전총괄과,053-666-2964,2019-11-21,6270000,대구광역시,
상동주민센터,대구광역시,수성구,27290,대구광역시 수성구 들안로9길 56,,35.8321593,128.6154835,00:00,23:59,00:00,23:59,00:00,23:59,0,48,1000,2,"물품배송시 휴대폰 문자로 전송되는 택배보관함 번호, 인증번호를 확인하여 해당 보관함에서 본인 휴대폰 번호와 전송받은 인증번호를 입력한 뒤 보관함을 열어 물품 수령",대형/01+중형/02+중소형/03+소형/04,01/01+02/04+03/03+04/12,01/50+02/50+03/50+04/50,01/52+02/44+03/52+04/44,01/44+02/35+03/22+04/17,2015-06-20,1599-2740,수성구청 안전총괄과,053-666-2964,2019-11-21,6270000,대구광역시,
지산1동주민센터,대구광역시,수성구,27290,대구광역시 수성구 지범로21길 16,,35.82491506,128.6370564,00:00,23:59,00:00,23:59,00:00,23:59,0,48,1000,2,"물품배송시 휴대폰 문자로 전송되는 택배보관함 번호, 인증번호를 확인하여 해당 보관함에서 본인 휴대폰 번호와 전송받은 인증번호를 입력한 뒤 보관함을 열어 물품 수령",대형/01+중형/02+중소형/03+소형/04,01/01+02/04+03/03+04/12,01/50+02/50+03/50+04/50,01/52+02/44+03/52+04/44,01/44+02/35+03/22+04/17,2015-06-20,1599-2740,수성구청 안전총괄과,053-666-2964,2019-11-21,6270000,대구광역시,
지산2동주민센터,대구광역시,수성구,27290,대구광역시 수성구 용학로33길 9,,35.823137,128.6280502,00:00,23:59,00:00,23:59,00:00,23:59,0,48,1000,2,"물품배송시 휴대폰 문자로 전송되는 택배보관함 번호, 인증번호를 확인하여 해당 보관함에서 본인 휴대폰 번호와 전송받은 인증번호를 입력한 뒤 보관함을 열어 물품 수령",대형/01+중형/02+중소형/03+소형/04,01/01+02/04+03/03+04/12,01/50+02/50+03/50+04/50,01/52+02/44+03/52+04/44,01/44+02/35+03/22+04/17,2015-06-20,1599-2740,수성구청 안전총괄과,053-666-2964,2019-11-21,6270000,대구광역시,
고산2동 행정복지센터,대구광역시,수성구,27290,대구광역시 수성구 달구벌대로 3091,,35.8434756,128.6951977,00:00,23:59,00:00,23:59,00:00,23:59,0,48,1000,2,"물품배송시 휴대폰 문자로 전송되는 택배보관함 번호, 인증번호를 확인하여 해당 보관함에서 본인 휴대폰 번호와 전송받은 인증번호를 입력한 뒤 보관함을 열어 물품 수령",대형/01+중형/02+중소형/03+소형/04,01/01+02/04+03/03+04/12,01/50+02/50+03/50+04/50,01/52+02/44+03/52+04/44,01/44+02/35+03/22+04/17,2017-12-18,1599-2740,수성구청 안전총괄과,053-666-2964,2019-11-21,6270000,대구광역시,
중동 행정복지센터,대구광역시,수성구,27290,대구광역시 수성구 수성로50길 38,,35.8473837,128.6150909,00:00,23:59,00:00,23:59,00:00,23:59,0,48,1000,2,"물품배송시 휴대폰 문자로 전송되는 택배보관함 번호, 인증번호를 확인하여 해당 보관함에서 본인 휴대폰 번호와 전송받은 인증번호를 입력한 뒤 보관함을 열어 물품 수령",대형/01+중형/02+중소형/03+소형/04,01/01+02/04+03/03+04/12,01/50+02/50+03/50+04/50,01/52+02/44+03/52+04/44,01/44+02/35+03/22+04/17,2017-12-18,1599-2740,수성구청 안전총괄과,053-666-2964,2019-11-21,6270000,대구광역시,
두산평생학습센터,대구광역시,수성구,27290,대구광역시 수성구 들안로16길 78,,35.8392417,128.6181617,00:00,23:59,00:00,23:59,00:00,23:59,0,48,1000,2,"물품배송시 휴대폰 문자로 전송되는 택배보관함 번호, 인증번호를 확인하여 해당 보관함에서 본인 휴대폰 번호와 전송받은 인증번호를 입력한 뒤 보관함을 열어 물품 수령",대형/01+중형/02+중소형/03+소형/04,01/01+02/03+03/12+04/03,01/50+02/50+03/50+04/50,01/52+02/44+03/52+04/44,01/44+02/35+03/22+04/17,2017-12-18,1599-2740,수성구청 안전총괄과,053-666-2964,2019-11-21,6270000,대구광역시,
무학숲도서관,대구광역시,수성구,27290,대구광역시 수성구 청수로40길 73-10,,35.83526112,128.6305615,00:00,23:59,00:00,23:59,00:00,23:59,0,48,1000,2,"물품배송시 휴대폰 문자로 전송되는 택배보관함 번호, 인증번호를 확인하여 해당 보관함에서 본인 휴대폰 번호와 전송받은 인증번호를 입력한 뒤 보관함을 열어 물품 수령",대형/01+중형/02+중소형/03+소형/04,01/01+02/04+03/03+04/12,01/50+02/50+03/50+04/50,01/52+02/44+03/52+04/44,01/44+02/35+03/22+04/17,2019-04-15,1599-2740,수성구청 안전총괄과,053-666-2964,2019-11-21,6270000,대구광역시,
범어3동행정복지센터,대구광역시,수성구,27290,대구광역시 수성구 상록로 42,,35.8632596,128.6241778,00:00,23:59,00:00,23:59,00:00,23:59,0,48,1000,2,"물품배송시 휴대폰 문자로 전송되는 택배보관함 번호, 인증번호를 확인하여 해당 보관함에서 본인 휴대폰 번호와 전송받은 인증번호를 입력한 뒤 보관함을 열어 물품 수령",대형/01+중형/02+중소형/03+소형/04,01/01+02/04+03/03+04/12,01/50+02/50+03/50+04/50,01/52+02/44+03/52+04/44,01/44+02/35+03/22+04/17,2019-04-15,1599-2740,수성구청 안전총괄과,053-666-2964,2019-11-21,6270000,대구광역시,
만촌1동 느지경로당,대구광역시,수성구,27290,대구광역시 수성구 화랑로40길46,,35.8765165,128.6485718,00:00,23:59,00:00,23:59,00:00,23:59,0,48,1000,2,"물품배송시 휴대폰 문자로 전송되는 택배보관함 번호, 인증번호를 확인하여 해당 보관함에서 본인 휴대폰 번호와 전송받은 인증번호를 입력한 뒤 보관함을 열어 물품 수령",대형/01+중형/02+중소형/03+소형/04,01/01+02/04+03/03+04/12,01/50+02/50+03/50+04/50,01/52+02/44+03/52+04/44,01/44+02/35+03/22+04/17,2019-04-15,1599-2740,수성구청 안전총괄과,053-666-2964,2019-11-21,6270000,대구광역시,
수성1가 삼승교회 주차장,대구광역시,수성구,27290,대구광역시 수성구 수성로 269,,35.849594,128.6125995,00:00,23:59,00:00,23:59,00:00,23:59,0,48,1000,2,"물품배송시 휴대폰 문자로 전송되는 택배보관함 번호, 인증번호를 확인하여 해당 보관함에서 본인 휴대폰 번호와 전송받은 인증번호를 입력한 뒤 보관함을 열어 물품 수령",대형/01+중형/02+중소형/03+소형/04,01/01+02/04+03/03+04/12,01/50+02/50+03/50+04/50,01/52+02/44+03/52+04/44,01/44+02/35+03/22+04/17,2019-04-15,1599-2740,수성구청 안전총괄과,053-666-2964,2019-11-21,6270000,대구광역시,
장기동주민센터,대구광역시,달서구,27290,대구광역시 달서구 장기로 277,,35.8433981,128.5299636,00:00,23:59,00:00,23:59,00:00,23:59,0,48,1000,2,"물품배송시 휴대폰 문자로 전송되는 택배보관함 번호, 인증번호를 확인하여 해당 보관함에서 본인 휴대폰 번호와 전송받은 인증번호를 입력한 뒤 보관함을 열어 물품 수령",대형/01+중형/02+중소형/03+소형/04,01/01+02/04+03/03+04/12,01/50+02/50+03/50+04/50,01/52+02/44+03/52+04/44,01/44+02/35+03/22+04/17,2015-06-20,1599-2740,달서구청 도시안전과,053-667-2894,2019-11-21,6270000,대구광역시,
상인2동주민센터,대구광역시,달서구,27290,대구광역시 달서구 상원로 27,,35.8125611,128.5362895,00:00,23:59,00:00,23:59,00:00,23:59,0,48,1000,2,"물품배송시 휴대폰 문자로 전송되는 택배보관함 번호, 인증번호를 확인하여 해당 보관함에서 본인 휴대폰 번호와 전송받은 인증번호를 입력한 뒤 보관함을 열어 물품 수령",대형/01+중형/02+중소형/03+소형/04,01/01+02/03+03/12+04/03,01/50+02/50+03/50+04/50,01/52+02/44+03/52+04/44,01/44+02/35+03/22+04/17,2015-06-20,1599-2740,달서구청 도시안전과,053-667-2894,2019-11-21,6270000,대구광역시,
달서구건강가정지원센터,대구광역시,달서구,27290,대구광역시 달서구 성당로 17,,35.8391647,128.5581943,00:00,23:59,00:00,23:59,00:00,23:59,0,48,1000,2,"물품배송시 휴대폰 문자로 전송되는 택배보관함 번호, 인증번호를 확인하여 해당 보관함에서 본인 휴대폰 번호와 전송받은 인증번호를 입력한 뒤 보관함을 열어 물품 수령",대형/01+중형/02+중소형/03+소형/04,01/01+02/04+03/03+04/12,01/50+02/50+03/50+04/50,01/52+02/44+03/52+04/44,01/44+02/35+03/22+04/17,2015-06-20,1599-2740,달서구청 도시안전과,053-667-2894,2019-11-21,6270000,대구광역시,
감삼동 행정복지센터,대구광역시,달서구,27290,대구광역시 달서구 감삼북길 119-10,,35.8510218,128.5421776,00:00,23:59,00:00,23:59,00:00,23:59,0,48,1000,2,"물품배송시 휴대폰 문자로 전송되는 택배보관함 번호, 인증번호를 확인하여 해당 보관함에서 본인 휴대폰 번호와 전송받은 인증번호를 입력한 뒤 보관함을 열어 물품 수령",대형/01+중형/02+중소형/03+소형/04,01/01+02/03+03/12+04/03,01/50+02/50+03/50+04/50,01/52+02/44+03/52+04/44,01/44+02/35+03/22+04/17,2017-12-18,1599-2740,달서구청 도시안전과,053-667-2894,2019-11-21,6270000,대구광역시,
용산1동 행정복지센터,대구광역시,달서구,27290,대구광역시 달서구 용산로 212-7,,35.8566419,128.5312386,00:00,23:59,00:00,23:59,00:00,23:59,0,48,1000,2,"물품배송시 휴대폰 문자로 전송되는 택배보관함 번호, 인증번호를 확인하여 해당 보관함에서 본인 휴대폰 번호와 전송받은 인증번호를 입력한 뒤 보관함을 열어 물품 수령",대형/01+중형/02+중소형/03+소형/04,01/01+02/04+03/03+04/12,01/50+02/50+03/50+04/50,01/52+02/44+03/52+04/44,01/44+02/35+03/22+04/17,2017-12-18,1599-2740,달서구청 도시안전과,053-667-2894,2019-11-21,6270000,대구광역시,
호산경로당,대구광역시,달서구,27290,대구광역시 달서구 달구벌대로 203길 3(노상),,35.8535604,128.4779793,00:00,23:59,00:00,23:59,00:00,23:59,0,48,1000,2,"물품배송시 휴대폰 문자로 전송되는 택배보관함 번호, 인증번호를 확인하여 해당 보관함에서 본인 휴대폰 번호와 전송받은 인증번호를 입력한 뒤 보관함을 열어 물품 수령",중형02+소형044,02/03+04/08,02/60+04/60,02/45+04/23,02/50+04/50,2017-12-18,1600-5136,달서구청 도시안전과,053-667-2894,2019-11-21,6270000,대구광역시,
계명대학교 정문 맞은편,대구광역시,달서구,27290,대구광역시 달서구 호산동로 188(노상),,35.85206004,128.4859446,00:00,23:59,00:00,23:59,00:00,23:59,0,48,1000,2,"물품배송시 휴대폰 문자로 전송되는 택배보관함 번호, 인증번호를 확인하여 해당 보관함에서 본인 휴대폰 번호와 전송받은 인증번호를 입력한 뒤 보관함을 열어 물품 수령",중형02+소형044,02/03+04/08,02/60+04/60,02/45+04/23,02/50+04/50,2017-12-18,1600-5136,달서구청 도시안전과,053-667-2894,2019-11-21,6270000,대구광역시,
계명대역 5번 출구,대구광역시,달서구,27290,대구광역시 달서구 달구벌대로 1147(노상),,35.85179003,128.4928954,00:00,23:59,00:00,23:59,00:00,23:59,0,48,1000,2,"물품배송시 휴대폰 문자로 전송되는 택배보관함 번호, 인증번호를 확인하여 해당 보관함에서 본인 휴대폰 번호와 전송받은 인증번호를 입력한 뒤 보관함을 열어 물품 수령",중형02+소형044,02/03+04/08,02/60+04/60,02/45+04/23,02/50+04/50,2017-12-18,1600-5136,달서구청 도시안전과,053-667-2894,2019-11-21,6270000,대구광역시,
돌산공원,대구광역시,달서구,27290,대구광역시 달서구 서당로 9길 40-28 (노상),,35.85741289,128.4935056,00:00,23:59,00:00,23:59,00:00,23:59,0,48,1000,2,"물품배송시 휴대폰 문자로 전송되는 택배보관함 번호, 인증번호를 확인하여 해당 보관함에서 본인 휴대폰 번호와 전송받은 인증번호를 입력한 뒤 보관함을 열어 물품 수령",중형02+소형044,02/03+04/08,02/60+04/60,02/45+04/23,02/50+04/50,2017-12-18,1600-5136,달서구청 도시안전과,053-667-2894,2019-11-21,6270000,대구광역시,
계명문화대 맞은편,대구광역시,달서구,27290,대구광역시 달서구 달서대로 664(노상),,35.85874973,128.4923838,00:00,23:59,00:00,23:59,00:00,23:59,0,48,1000,2,"물품배송시 휴대폰 문자로 전송되는 택배보관함 번호, 인증번호를 확인하여 해당 보관함에서 본인 휴대폰 번호와 전송받은 인증번호를 입력한 뒤 보관함을 열어 물품 수령",중형02+소형044,02/03+04/08,02/60+04/60,02/45+04/23,02/50+04/50,2017-12-18,1600-5136,달서구청 도시안전과,053-667-2894,2019-11-21,6270000,대구광역시,
하나로클럽달성점,대구광역시,달성군,27710,대구광역시 달성군 화원읍 성천로9,,35.79929061,128.4871518,00:00,23:59,00:00,23:59,00:00,23:59,0,48,1000,2,"물품배송시 휴대폰 문자로 전송되는 택배보관함 번호, 인증번호를 확인하여 해당 보관함에서 본인 휴대폰 번호와 전송받은 인증번호를 입력한 뒤 보관함을 열어 물품 수령",대형/01+중형/02+중소형/03+소형/04,01/01+02/03+03/12+04/03,01/50+02/50+03/50+04/50,01/52+02/44+03/52+04/44,01/44+02/35+03/22+04/17,2015-06-20,1599-2740,달성군 안전방재과,053-668-2894,2019-11-21,6270000,대구광역시,
유가면사무소,대구광역시,달성군,27710,대구광역시 달성군 유가읍 테크노상업로 95,,35.6938763,128.4598183,00:00,23:59,00:00,23:59,00:00,23:59,0,48,1000,2,"물품배송시 휴대폰 문자로 전송되는 택배보관함 번호, 인증번호를 확인하여 해당 보관함에서 본인 휴대폰 번호와 전송받은 인증번호를 입력한 뒤 보관함을 열어 물품 수령",대형/01+중형/02+중소형/03+소형/04,01/01+02/03+03/12+04/03,01/50+02/50+03/50+04/50,01/52+02/44+03/52+04/44,01/44+02/35+03/22+04/17,2015-06-20,1599-2740,달성군 안전방재과,053-668-2894,2019-11-21,6270000,대구광역시,
가창면사무소,대구광역시,달성군,27710,대구광역시 달성군 가창면 가창로 1100,,35.8027083912,128.6228326135,00:00,23:59,00:00,23:59,00:00,23:59,0,48,1000,2,"물품배송시 휴대폰 문자로 전송되는 택배보관함 번호, 인증번호를 확인하여 해당 보관함에서 본인 휴대폰 번호와 전송받은 인증번호를 입력한 뒤 보관함을 열어 물품 수령",대형/01+중형/02+중소형/03+소형/04,01/01+02/04+03/03+04/12,01/50+02/50+03/50+04/50,01/52+02/44+03/52+04/44,01/44+02/35+03/22+04/17,2015-06-20,1599-2740,달성군 안전방재과,053-668-2894,2019-11-21,6270000,대구광역시,
본오도서관,경기도,상록구,41271,경기도 안산시 상록구 각골로 49(본오동),경기도 안산시 상록구 본오동 778,37.2939960384,126.8722918795,00:00,23:59,00:00,23:59,00:00,23:59,48,24,500,1,택배 주문 시 무인택배함 설치주소로 물품수령장소 지정-택배업체에서 무인택배함에 물품 보관 후 수취인 연락처 입력후 물품보관-수취인에게 택배도착 문자 및 인증번호 전송-수ㅇ취인 인증 후 물품 수령,대형/01+중형/02+중소형/03+소형/04,01/1+02/12+03/1+01/6,01/60+01/60+03/60+04/60,01/50+02/50+03/50+04/50,01/90+02/30+03/60+04/20,2017-04-19,1666-2098,여성가족과,031-481-2209,2019-10-25,3930000,경기도 안산시,
와동종합사회복지관,경기도,단원구,41273,경기도 안산시 단원구 와동로 118(와동),경기도 안산시 단원구 와동 111-4,37.340598,126.827257,00:00,23:59,00:00,23:59,00:00,23:59,48,24,500,1,택배 주문 시 무인택배함 설치주소로 물품수령장소 지정-택배업체에서 무인택배함에 물품 보관 후 수취인 연락처 입력후 물품보관-수취인에게 택배도착 문자 및 인증번호 전송-수ㅇ취인 인증 후 물품 수령,대형/01+중형/02+중소형/03+소형/04,01/1+02/12+03/1+01/6,01/60+01/60+03/60+04/60,01/50+02/50+03/50+04/50,01/90+02/30+03/60+04/20,2017-04-19,1666-2098,여성가족과,031-481-2209,2019-10-25,3930000,경기도 안산시,
선부2동 행정복지센터,경기도,단원구,41273,경기도 안산시 단원구 지곡로 46(선부동),경기도 안산시 단원구 선부동 997-2,37.3383614202,126.8029199005,00:00,23:59,00:00,23:59,00:00,23:59,48,24,500,1,택배 주문 시 무인택배함 설치주소로 물품수령장소 지정-택배업체에서 무인택배함에 물품 보관 후 수취인 연락처 입력후 물품보관-수취인에게 택배도착 문자 및 인증번호 전송-수ㅇ취인 인증 후 물품 수령,대형/01+중형/02+중소형/03+소형/04,01/1+02/12+03/1+01/6,01/60+01/60+03/60+04/60,01/50+02/50+03/50+04/50,01/90+02/30+03/60+04/20,2017-04-19,1666-2098,여성가족과,031-481-2209,2019-10-25,3930000,경기도 안산시,
부곡종합사회복지관,경기도,상록구,41271,경기도 안산시 상록구 성호로303(부곡동,경기도 안산시 상록구 부곡동 711,37.330206,126.859043,00:00,23:59,00:00,23:59,00:00,23:59,48,24,500,1,택배 주문 시 무인택배함 설치주소로 물품수령장소 지정-택배업체에서 무인택배함에 물품 보관 후 수취인 연락처 입력후 물품보관-수취인에게 택배도착 문자 및 인증번호 전송-수ㅇ취인 인증 후 물품 수령,대형/01+중형/02+중소형/03+소형/04,01/1+02/12+03/1+01/6,01/60+01/60+03/60+04/60,01/50+02/50+03/50+04/50,01/90+02/30+03/60+04/20,2018-05-01,1666-2098,여성가족과,031-481-2209,2019-10-25,3930000,경기도 안산시,
반월동행정복지센터,경기도,상록구,41271,경기도 안산시 상록구 건건로 51(건건동),경기도 안산시 상록구 건건동 641-2,37.306052,126.902168,00:00,23:59,00:00,23:59,00:00,23:59,48,24,500,1,택배 주문 시 무인택배함 설치주소로 물품수령장소 지정-택배업체에서 무인택배함에 물품 보관 후 수취인 연락처 입력후 물품보관-수취인에게 택배도착 문자 및 인증번호 전송-수ㅇ취인 인증 후 물품 수령,대형/01+중형/02+중소형/03+소형/04,01/1+02/12+03/1+01/6,01/60+01/60+03/60+04/60,01/50+02/50+03/50+04/50,01/90+02/30+03/60+04/20,2018-05-01,1666-2098,여성가족과,031-481-2209,2019-10-25,3930000,경기도 안산시,
해양동주민자치센터,경기도,상록구,41271,경기도 안산시 상록구 한양대학로 31(사동),경기도 안산시 상록구 사동 1171,37.3009060747,126.840381,00:00,23:59,00:00,23:59,00:00,23:59,48,24,500,1,택배 주문 시 무인택배함 설치주소로 물품수령장소 지정-택배업체에서 무인택배함에 물품 보관 후 수취인 연락처 입력후 물품보관-수취인에게 택배도착 문자 및 인증번호 전송-수ㅇ취인 인증 후 물품 수령,대형/01+중형/02+중소형/03+소형/04,01/1+02/12+03/1+01/6,01/60+01/60+03/60+04/60,01/50+02/50+03/50+04/50,01/90+02/30+03/60+04/20,2018-05-01,1666-2098,여성가족과,031-481-2209,2019-10-25,3930000,경기도 안산시,
이동행정복지센터,경기도,상록구,41271,경기도 안산시 상록구 이동로 46(이동),경기도 안산시 상록구 이동 578-12,37.305422,126.860827,00:00,23:59,00:00,23:59,00:00,23:59,48,24,500,1,택배 주문 시 무인택배함 설치주소로 물품수령장소 지정-택배업체에서 무인택배함에 물품 보관 후 수취인 연락처 입력후 물품보관-수취인에게 택배도착 문자 및 인증번호 전송-수ㅇ취인 인증 후 물품 수령,대형/01+중형/02+중소형/03+소형/04,01/1+02/12+03/1+01/6,01/60+01/60+03/60+04/60,01/50+02/50+03/50+04/50,01/90+02/30+03/60+04/20,2018-05-01,1666-2098,여성가족과,031-481-2209,2019-10-25,3930000,경기도 안산시,
선부석수경로당,경기도,단원구,41273,경기도 안산시 단원구 북촌2길 17 (선부동),경기도 안산시 단원구 선부동 1025,37.343308,126.805007,00:00,23:59,00:00,23:59,00:00,23:59,48,24,500,1,택배 주문 시 무인택배함 설치주소로 물품수령장소 지정-택배업체에서 무인택배함에 물품 보관 후 수취인 연락처 입력후 물품보관-수취인에게 택배도착 문자 및 인증번호 전송-수ㅇ취인 인증 후 물품 수령,대형/01+중형/02+중소형/03+소형/04,01/1+02/12+03/1+01/6,01/60+01/60+03/60+04/60,01/50+02/50+03/50+04/50,01/90+02/30+03/60+04/20,2019-10-23,1577-1545,여성가족과,031-481-2209,2019-10-25,3930000,경기도 안산시,
다문화안전경찰센터,경기도,단원구,41273,경기도 안산시 단원구 다문화2길 51(원곡동),경기도 안산시 단원구 원곡동 796-11,37.3288100139,126.790045,00:00,23:59,00:00,23:59,00:00,23:59,48,24,500,1,택배 주문 시 무인택배함 설치주소로 물품수령장소 지정-택배업체에서 무인택배함에 물품 보관 후 수취인 연락처 입력후 물품보관-수취인에게 택배도착 문자 및 인증번호 전송-수ㅇ취인 인증 후 물품 수령,대형/01+중형/02+중소형/03+소형/04,01/1+02/12+03/1+01/6,01/60+01/60+03/60+04/60,01/50+02/50+03/50+04/50,01/90+02/30+03/60+04/20,2019-10-23,1577-1545,여성가족과,031-481-2209,2019-10-25,3930000,경기도 안산시,
한국호텔관광전문학교,경기도,단원구,41273,경기도 안산시 단원구 중앙대로 945(고잔동),경기도 안산시 단원구 고잔동 542-1,37.3171410212,126.8417881710,00:00,23:59,00:00,23:59,00:00,23:59,48,24,500,1,택배 주문 시 무인택배함 설치주소로 물품수령장소 지정-택배업체에서 무인택배함에 물품 보관 후 수취인 연락처 입력후 물품보관-수취인에게 택배도착 문자 및 인증번호 전송-수ㅇ취인 인증 후 물품 수령,대형/01+중형/02+중소형/03+소형/04,01/1+02/12+03/1+01/6,01/60+01/60+03/60+04/60,01/50+02/50+03/50+04/50,01/90+02/30+03/60+04/20,2019-10-23,1577-1545,여성가족과,031-481-2209,2019-10-25,3930000,경기도 안산시,
회현동주민센터,경상남도,김해시,48250,경상남도 김해시 가락로63번길 33,,35.2315767735,128.8779219791,00:00,23:59,00:00,23:59,00:00,23:59,48,24,1000,01,"택배를 주문하고, 물폼 수령장소를 안심택배보관함으로 지정 - 휴대폰문자 메시지 확인 - 본인 휴대폰번호 및 인증번호 입력 후 물품수령",중형/02+소형/04,02/6+04/12,600,500,02/450+04/225,2018-07-05,1899-4711,회현동주민센터,055-330-3311,2019-09-20,5350000,경상남도 김해시,
활천동행정복지센터,경상남도,김해시,48250,경상남도 김해시 인제로11번길 51,,35.2289057073,128.8998571361,00:00,23:59,00:00,23:59,00:00,23:59,48,24,1000,01,"택배를 주문하고, 물폼 수령장소를 안심택배보관함으로 지정 - 휴대폰문자 메시지 확인 - 본인 휴대폰번호 및 인증번호 입력 후 물품수령",중형/02+소형/04,02/6+04/12,600,500,02/450+04/225,2019-03-29,1899-4711,활천동행정복지센터,055-330-3311,2019-09-20,5350000,경상남도 김해시,
진영읍보건지소,경상남도,김해시,48250,경상남도 김해시 진영읍 김해대로365번길 6-24,,35.3077913931,128.7310896804,00:00,23:59,00:00,23:59,00:00,23:59,48,24,1000,01,"택배를 주문하고, 물폼 수령장소를 안심택배보관함으로 지정 - 휴대폰문자 메시지 확인 - 본인 휴대폰번호 및 인증번호 입력 후 물품수령",중형/02+소형/04,02/6+04/12,600,500,02/450+04/225,2017-06-28,1899-4711,진영읍보건지소,055-330-3311,2019-09-20,5350000,경상남도 김해시,
장유2동주민센터,경상남도,김해시,48250,경상남도 김해시 능동로 43,,35.1971216389,128.7977252292,00:00,23:59,00:00,23:59,00:00,23:59,48,24,1000,01,"택배를 주문하고, 물폼 수령장소를 안심택배보관함으로 지정 - 휴대폰문자 메시지 확인 - 본인 휴대폰번호 및 인증번호 입력 후 물품수령",중형/02+소형/04,02/6+04/12,600,500,02/450+04/225,2018-07-05,1899-4711,장유2동주민센터,055-330-3311,2019-09-20,5350000,경상남도 김해시,
삼안동주민센터,경상남도,김해시,48250,경상남도 김해시 활천로255번길 12,,35.2438783545,128.9075048433,00:00,23:59,00:00,23:59,00:00,23:59,48,24,1000,01,"택배를 주문하고, 물폼 수령장소를 안심택배보관함으로 지정 - 휴대폰문자 메시지 확인 - 본인 휴대폰번호 및 인증번호 입력 후 물품수령",중형/02+소형/04,02/6+04/12,600,500,02/450+04/225,2017-06-29,1899-4711,삼안동주민센터,055-330-3311,2019-09-20,5350000,경상남도 김해시,
북부동주민센터,경상남도,김해시,48250,경상남도 김해시 해반천로 160,,35.2626952828,128.8677533957,00:00,23:59,00:00,23:59,00:00,23:59,48,24,1000,01,"택배를 주문하고, 물폼 수령장소를 안심택배보관함으로 지정 - 휴대폰문자 메시지 확인 - 본인 휴대폰번호 및 인증번호 입력 후 물품수령",중형/02+소형/04,02/6+04/12,600,500,02/450+04/225,2017-06-29,1899-4711,북부동주민센터,055-330-3311,2019-09-20,5350000,경상남도 김해시,
부원동행정복지센터,경상남도,김해시,48250,경상남도 김해시 김해대로2371번길 24-16,,35.2287280519,128.8865592250,00:00,23:59,00:00,23:59,00:00,23:59,48,24,1000,01,"택배를 주문하고, 물폼 수령장소를 안심택배보관함으로 지정 - 휴대폰문자 메시지 확인 - 본인 휴대폰번호 및 인증번호 입력 후 물품수령",중형/02+소형/04,02/6+04/12,600,500,02/450+04/225,2019-03-29,1899-4711,부원동행정복지센터,055-330-3311,2019-09-20,5350000,경상남도 김해시,
동상동주민자치센터,경상남도,김해시,48250,경상남도 김해시 분성로335번길 34,,35.2365279268,128.8824429251,00:00,23:59,00:00,23:59,00:00,23:59,48,24,1000,01,"택배를 주문하고, 물폼 수령장소를 안심택배보관함으로 지정 - 휴대폰문자 메시지 확인 - 본인 휴대폰번호 및 인증번호 입력 후 물품수령",중형/02+소형/04,02/6+04/12,600,500,02/450+04/225,2017-06-02,1899-4711,동상동주민자치센터,055-330-3311,2019-09-20,5350000,경상남도 김해시,
내외문화의집,경상남도,김해시,48250,경상남도 김해시 금관대로 1255,,35.2375170033,128.8578655940,00:00,23:59,00:00,23:59,00:00,23:59,48,24,1000,01,"택배를 주문하고, 물폼 수령장소를 안심택배보관함으로 지정 - 휴대폰문자 메시지 확인 - 본인 휴대폰번호 및 인증번호 입력 후 물품수령",중형/02+소형/04,02/6+04/12,600,500,02/450+04/225,2018-07-05,1899-4711,내외문화의집,055-330-3311,2019-09-20,5350000,경상남도 김해시,
염전골 마을센터(주안5동 마을회관),인천광역시,미추홀구,35105,인천광역시 미추홀구 길파로41번길 3 (주안동),인천광역시 미추홀구 주안동 8-7,37.4693535,126.6794679,00:00,23:59,00:00,23:59,00:00,23:59,48,24,0,2,"배송지를 택배함 주소로 지정한 경우, 물품 배송시 휴대폰 문자로 전송되는 택배보관함 번호, 인증번호를 확인하여 해당보관함에서 본인 휴대폰 번호와 전송받은 인증번호를 입력한 뒤 보관함을 열어  물품 수령",대형/01+소형/04,01/8+04/16,01/60+04/60,01/50+04/50,01/45+04/23,2016-06-15,1899-4711,인천광역시 미추홀구 여성가족과,032-880-7374,2019-09-27,3510500,인천광역시 미추홀구,
숭의1·3동 행정복지센터,인천광역시,미추홀구,35105,인천광역시 미추홀구 석정로92번길 21-17 (숭의동),인천광역시 미추홀구 숭의동 85-1,37.4672028,126.6472291,00:00,23:59,00:00,23:59,00:00,23:59,48,24,0,2,"배송지를 택배함 주소로 지정한 경우, 물품 배송시 휴대폰 문자로 전송되는 택배보관함 번호, 인증번호를 확인하여 해당보관함에서 본인 휴대폰 번호와 전송받은 인증번호를 입력한 뒤 보관함을 열어  물품 수령",대형/01+소형/04,01/6+04/12,01/60+04/60,01/50+04/50,01/45+04/23,2017-06-16,1899-4711,인천광역시 미추홀구 여성가족과,032-880-7374,2019-09-27,3510500,인천광역시 미추홀구,
주안3동 행정복지센터,인천광역시,미추홀구,35105,인천광역시 미추홀구 주승로31번길 28-10 (주안동),인천광역시 미추홀구 주안동 867-9,37.4448289,126.6740306,00:00,23:59,00:00,23:59,00:00,23:59,48,24,0,2,"배송지를 택배함 주소로 지정한 경우, 물품 배송시 휴대폰 문자로 전송되는 택배보관함 번호, 인증번호를 확인하여 해당보관함에서 본인 휴대폰 번호와 전송받은 인증번호를 입력한 뒤 보관함을 열어  물품 수령",대형/01+소형/04,01/6+04/12,01/60+04/60,01/50+04/50,01/45+04/23,2017-06-16,1899-4711,인천광역시 미추홀구 여성가족과,032-880-7374,2019-09-27,3510500,인천광역시 미추홀구,
용현1·4동 행정복지센터,인천광역시,미추홀구,35105,인천광역시 미추홀구 인주대로 198 (용현동),인천광역시 미추홀구 용현동 140-10,37.45480121,126.658576,00:00,23:59,00:00,23:59,00:00,23:59,48,24,0,2,"배송지를 택배함 주소로 지정한 경우, 물품 배송시 휴대폰 문자로 전송되는 택배보관함 번호, 인증번호를 확인하여 해당보관함에서 본인 휴대폰 번호와 전송받은 인증번호를 입력한 뒤 보관함을 열어  물품 수령",대형/01+소형/04,01/6+04/12,01/60+04/60,01/50+04/50,01/45+04/23,2017-06-16,1899-4711,인천광역시 미추홀구 여성가족과,032-880-7374,2019-09-27,3510500,인천광역시 미추홀구,
학익2동 행정복지센터,인천광역시,미추홀구,35105,인천광역시 미추홀구 한나루로 444 (학익동),인천광역시 미추홀구 학익동 4-16,37.4465308,126.6674733,00:00,23:59,00:00,23:59,00:00,23:59,48,24,0,2,"배송지를 택배함 주소로 지정한 경우, 물품 배송시 휴대폰 문자로 전송되는 택배보관함 번호, 인증번호를 확인하여 해당보관함에서 본인 휴대폰 번호와 전송받은 인증번호를 입력한 뒤 보관함을 열어  물품 수령",대형/01+소형/04,01/4+04/8,01/60+04/60,01/50+04/50,01/45+04/23,2018-10-31,1899-4711,인천광역시 미추홀구 여성가족과,032-880-7374,2019-09-27,3510500,인천광역시 미추홀구,
이랑도서관,인천광역시,미추홀구,35105,인천광역시 미추홀구 미추홀대로578번길 7 (주안동),인천광역시 미추홀구 주안동 1465-13,37.44923613,126.6803224,00:00,23:59,00:00,23:59,00:00,23:59,48,24,0,2,"배송지를 택배함 주소로 지정한 경우, 물품 배송시 휴대폰 문자로 전송되는 택배보관함 번호, 인증번호를 확인하여 해당보관함에서 본인 휴대폰 번호와 전송받은 인증번호를 입력한 뒤 보관함을 열어  물품 수령",대형/01+소형/04,01/6+04/12,01/60+04/60,01/50+04/50,01/45+04/23,2019-01-21,1899-4711,인천광역시 미추홀구 여성가족과,032-880-7374,2019-09-27,3510500,인천광역시 미추홀구,
학산소극장,인천광역시,미추홀구,35105,인천광역시 미추홀구 인하로 126(용현동),인천광역시 미추홀구 용현동 81-8,37.44950556,126.6618775,00:00,23:59,00:00,23:59,00:00,23:59,48,24,0,2,"배송지를 택배함 주소로 지정한 경우, 물품 배송시 휴대폰 문자로 전송되는 택배보관함 번호, 인증번호를 확인하여 해당보관함에서 본인 휴대폰 번호와 전송받은 인증번호를 입력한 뒤 보관함을 열어  물품 수령",대형/01+소형/04,01/6+04/12,01/60+04/60,01/50+04/50,01/45+04/23,2019-05-28,1899-4711,인천광역시 미추홀구 여성가족과,032-880-7374,2019-09-27,3510500,인천광역시 미추홀구,
사창동주민센터,충청북도,청주시,43112,충청북도 청주시 서원구 내수동로 108,충청북도 청주시 서원구 사창동 409,36.6335957,127.4588962,09:00,23:00,09:00,23:00,09:00,23:00,48,24,1000,01,"물품 배송 시 휴대폰 문자로 전송되는 택배보관함번호, 인증번호를 확인하여, 해당 보관함에서 본인 휴대폰 번호와 전송받은 인증번호를 입력한 뒤 보관함을 열어 물품 수령",특대형/01,01월 19일,01/600,01/450,01/90,2016-02-22,1599-2740,하이스트시스템㈜,1599-2740,2019-06-01,6430000,충청북도,
용암1동 주민센터,충청북도,청주시,43111,충청북도 청주시 상당구 중흥로 29,,36.60883847,127.5012816,09:00,23:00,09:00,23:00,09:00,23:00,48,24,1000,01,"물품 배송 시 휴대폰 문자로 전송되는 택배보관함번호, 인증번호를 확인하여, 해당 보관함에서 본인 휴대폰 번호와 전송받은 인증번호를 입력한 뒤 보관함을 열어 물품 수령",특대형/01,01월 19일,01/600,01/450,01/90,2016-02-22,1599-2740,하이스트시스템㈜,1599-2740,2019-06-01,6430000,충청북도,
청원구청,충청북도,청주시,43114,충청북도 청주시 청원구 직지대로 871,충청북도 청주시 청원구 우암동 354-23,36.6515839,127.4866262,09:00,23:00,09:00,23:00,09:00,23:00,48,24,1000,01,"물품 배송 시 휴대폰 문자로 전송되는 택배보관함번호, 인증번호를 확인하여, 해당 보관함에서 본인 휴대폰 번호와 전송받은 인증번호를 입력한 뒤 보관함을 열어 물품 수령",특대형/01,01월 19일,01/600,01/450,01/90,2017-04-01,1599-2740,하이스트시스템㈜,1599-2740,2019-06-01,6430000,충청북도,
한국교원대 교육연구관,충청북도,청주시,43113,충청북도 청주시 흥덕구 강내면 태성탑연로 250,충청북도 청주시 흥덕구 강내면 다락리 산7,36.6056660115,127.3573244574,09:00,23:00,09:00,23:00,09:00,23:00,48,24,1000,01,"물품 배송 시 휴대폰 문자로 전송되는 택배보관함번호, 인증번호를 확인하여, 해당 보관함에서 본인 휴대폰 번호와 전송받은 인증번호를 입력한 뒤 보관함을 열어 물품 수령",특대형/01,01월 19일,01/600,01/450,01/90,2018-09-28,1599-2740,하이스트시스템㈜,1599-2740,2019-06-01,6430000,충청북도,
흥덕구청,충청북도,청주시,43113,충청북도 청주시 흥덕구 대농로 88,,36.64148014,127.4315244,09:00,23:00,09:00,23:00,09:00,23:00,48,24,1000,01,"물품 배송 시 휴대폰 문자로 전송되는 택배보관함번호, 인증번호를 확인하여, 해당 보관함에서 본인 휴대폰 번호와 전송받은 인증번호를 입력한 뒤 보관함을 열어 물품 수령",특대형/01,01월 19일,01/600,01/450,01/90,2017-04-01,1599-2740,하이스트시스템㈜,1599-2740,2019-06-01,6430000,충청북도,
흥덕도서관,충청북도,청주시,43113,충청북도 청주시 흥덕구 증안로90번길 34,충청북도 청주시 흥덕구 복대동 3025,36.63439533,127.4320574,09:00,23:00,09:00,23:00,09:00,23:00,48,24,1000,01,"물품 배송 시 휴대폰 문자로 전송되는 택배보관함번호, 인증번호를 확인하여, 해당 보관함에서 본인 휴대폰 번호와 전송받은 인증번호를 입력한 뒤 보관함을 열어 물품 수령",특대형/01,01월 19일,01/600,01/450,01/90,2017-04-01,1599-2740,하이스트시스템㈜,1599-2740,2019-06-01,6430000,충청북도,
안심무인택배함,충청북도,충주시,43130,충청북도 충주시 충열5길 32,,36.94843948,127.9049858,09:00,23:59,00:00,23:59,00:00,23:59,48,24,1000,01,"물품 배송 시 휴대폰 문자로 전송되는 택배보관함번호, 인증번호를 확인하여, 해당 보관함에서 본인 휴대폰 번호와 전송받은 인증번호를 입력한 뒤 보관함을 열어 물품 수령",대형/02,02월 10일,02/60,02/50,02/85,2017-07-01,1600-5136,충주시청여성청소년과,043-850-6851,2019-06-01,6430000,충청북도,
안심무인택배함,충청북도,충주시,43130,충청북도 충주시 동수3길 29,,36.98570226,127.9376583,09:00,23:59,00:00,23:59,00:00,23:59,48,24,1000,01,"물품 배송 시 휴대폰 문자로 전송되는 택배보관함번호, 인증번호를 확인하여, 해당 보관함에서 본인 휴대폰 번호와 전송받은 인증번호를 입력한 뒤 보관함을 열어 물품 수령",대형/02,02월 10일,02/60,02/50,02/85,2017-07-02,1600-5136,충주시청여성청소년과,043-850-6851,2019-06-01,6430000,충청북도,
안심무인택배함,충청북도,충주시,43130,충청북도 충주시 대소원면 산정독정길 190,,36.95899275,127.8707528,09:00,23:59,00:00,23:59,00:00,23:59,48,24,1000,01,"물품 배송 시 휴대폰 문자로 전송되는 택배보관함번호, 인증번호를 확인하여, 해당 보관함에서 본인 휴대폰 번호와 전송받은 인증번호를 입력한 뒤 보관함을 열어 물품 수령",대형/02,02월 10일,02/60,02/50,02/85,2018-06-01,1600-5136,충주시청여성청소년과,043-850-6851,2019-06-01,6430000,충청북도,
안심무인택배함,충청북도,충주시,43130,충청북도 충주시 칠금18길 39,,36.98586719,127.9239798,09:00,23:59,00:00,23:59,00:00,23:59,48,24,1000,01,"물품 배송 시 휴대폰 문자로 전송되는 택배보관함번호, 인증번호를 확인하여, 해당 보관함에서 본인 휴대폰 번호와 전송받은 인증번호를 입력한 뒤 보관함을 열어 물품 수령",대형/02,02월 10일,02/60,02/50,02/85,2018-06-02,1600-5136,충주시청여성청소년과,043-850-6851,2019-06-01,6430000,충청북도,
안심무인택배함,충청북도,충주시,43130,충청북도 충주시 금봉5길 6,,36.96225879,127.9428772,09:00,23:59,00:00,23:59,00:00,23:59,48,24,1000,01,"물품 배송 시 휴대폰 문자로 전송되는 택배보관함번호, 인증번호를 확인하여, 해당 보관함에서 본인 휴대폰 번호와 전송받은 인증번호를 입력한 뒤 보관함을 열어 물품 수령",대형/02,02월 10일,02/60,02/50,02/85,2018-11-01,1600-5136,충주시청여성청소년과,043-850-6851,2019-06-01,6430000,충청북도,
여성안심 무인택배함,충청북도,증평군,43745,충청북도 증평군 증평읍 광장로88,충청북도 증평군 증평읍 창동리 100,36.78537723,127.5815218,09:00,00:00,00:00,00:00,00:00,00:00,48,24,1000,01,기사가 보관을 하면 택배 주인에게 비밀번호가 문자로 송부됨/ 비밀번호를 입력하여 택배 수령,소형/04,04월 18일,04/600,04/50,04/33,2017-11-01,070-7712-0323,증평군청 안전총괄과,043-835-4713,2019-06-01,6430000,충청북도,
여성안심 무인택배함,충청북도,증평군,43745,충청북도 증평군 증평읍 초중8길 60,,36.7790390731,127.5729379733,09:00,00:00,00:00,00:00,00:00,00:00,48,24,1000,01,기사가 보관을 하면 택배 주인에게 비밀번호가 문자로 송부됨/ 비밀번호를 입력하여 택배 수령,소형/04,04월 18일,04/600,04/50,04/33,2017-11-01,070-7712-0323,증평군청 안전총괄과,043-835-4713,2019-06-01,6430000,충청북도,
해피마트(나들가게),서울특별시,동작구,11590,서울특별시 동작구 신대방1나길 26,,37.486474,126.907672,00:00,23:59,00:00,23:59,00:00,23:59,48,24,1000,03,"물품 배송 시 휴대폰 문자로 전송되는 택배보관함번호, 인증번호를 확인하여, 해당 보관함에서 본인 휴대폰 번호와 전송받은 인증번호를 입력한 뒤 보관함을 열어 물품 수령",대형/01+중형/02+소형/03,01/1+02/8+03/10,01/60+02/60+03/60,01/50+02/50+03/50,01/90+02/45+03/22.5,2018-05-23,02-1899-4711,㈜새누,02-865-8384,2019-07-09,3190000,서울특별시 동작구,
강남교회(교육관),서울특별시,동작구,11590,서울특별시 동작구 만양로76,,37.5102931,126.945091,00:00,23:59,00:00,23:59,00:00,23:59,48,24,1000,03,"물품 배송 시 휴대폰 문자로 전송되는 택배보관함번호, 인증번호를 확인하여, 해당 보관함에서 본인 휴대폰 번호와 전송받은 인증번호를 입력한 뒤 보관함을 열어 물품 수령",대형/01+중형/02+소형/03,01/5+02/3+03/12,01/55+02/55+03/55,01/45+02/45+03/45,01/45+02/30+03/20,2014-07-15,02-1899-4712,㈜새누,02-865-8385,2019-07-09,3190000,서울특별시 동작구,
순만빌딩,서울특별시,동작구,11590,서울특별시 동작구 노량진로169,,37.5140464,126.944835,00:00,23:59,00:00,23:59,00:00,23:59,48,24,1000,03,"물품 배송 시 휴대폰 문자로 전송되는 택배보관함번호, 인증번호를 확인하여, 해당 보관함에서 본인 휴대폰 번호와 전송받은 인증번호를 입력한 뒤 보관함을 열어 물품 수령",대형/01+중형/02+소형/03,01/1+02/5+03/7,01/60+02/60+03/60,01/50+02/50+03/50,01/90+02/45+03/22.5,2017-05-24,02-1899-4713,㈜새누,02-865-8386,2019-07-09,3190000,서울특별시 동작구,
우리은행 동작구청지점,서울특별시,동작구,11590,서울특별시 동작구 장승배기로 161,,37.512380,126.939452,00:00,23:59,00:00,23:59,00:00,23:59,48,24,1000,03,"물품 배송 시 휴대폰 문자로 전송되는 택배보관함번호, 인증번호를 확인하여, 해당 보관함에서 본인 휴대폰 번호와 전송받은 인증번호를 입력한 뒤 보관함을 열어 물품 수령",대형/01+중형/02+소형/03,01/1+02/3+03/39,01/55+02/55+03/55,01/45+02/45+03/45,01/90+02/45+03/30,2013-09-13,02-1899-4714,㈜새누,02-865-8387,2019-07-09,3190000,서울특별시 동작구,
상도1동주민센터,서울특별시,동작구,11590,서울특별시 동작구 상도로 53길9,,37.498044,126.953078,00:00,23:59,00:00,23:59,00:00,23:59,48,24,1000,03,"물품 배송 시 휴대폰 문자로 전송되는 택배보관함번호, 인증번호를 확인하여, 해당 보관함에서 본인 휴대폰 번호와 전송받은 인증번호를 입력한 뒤 보관함을 열어 물품 수령",대형/01+중형/02+소형/03,01/0+02/5+03/11,02/55+03/55,02/45+03/45,02/45+03/22.5,2016-10-04,02-1899-4715,㈜새누,02-865-8388,2019-07-09,3190000,서울특별시 동작구,
동작문화복지센터,서울특별시,동작구,11590,서울특별시 동작구 장승배기로 10길 42,,37.5043975,126.941080,00:00,23:59,00:00,23:59,00:00,23:59,48,24,1000,03,"물품 배송 시 휴대폰 문자로 전송되는 택배보관함번호, 인증번호를 확인하여, 해당 보관함에서 본인 휴대폰 번호와 전송받은 인증번호를 입력한 뒤 보관함을 열어 물품 수령",대형/01+중형/02+소형/03,01/1+02/3+03/21,01/60+02/60+03/60,01/50+02/50+03/50,01/90+02/45+03/22.5,2014-07-15,02-1899-4716,㈜새누,02-865-8389,2019-07-09,3190000,서울특별시 동작구,
동작청소년문화의집,서울특별시,동작구,11590,서울특별시 동작구 상도로 15바길5,,37.504089,126.933281,00:00,23:59,00:00,23:59,00:00,23:59,48,24,1000,03,"물품 배송 시 휴대폰 문자로 전송되는 택배보관함번호, 인증번호를 확인하여, 해당 보관함에서 본인 휴대폰 번호와 전송받은 인증번호를 입력한 뒤 보관함을 열어 물품 수령",대형/01+중형/02+소형/03,01/5+02/3+03/12,01/55+02/55+03/55,01/45+02/45+03/45,01/45+02/30+03/20,2014-07-15,02-1899-4717,㈜새누,02-865-8390,2019-07-09,3190000,서울특별시 동작구,
상도3동주민센터,서울특별시,동작구,11590,서울특별시 동작구 성대로2길11,,37.4990765,126.931384,00:00,23:59,00:00,23:59,00:00,23:59,48,24,1000,03,"물품 배송 시 휴대폰 문자로 전송되는 택배보관함번호, 인증번호를 확인하여, 해당 보관함에서 본인 휴대폰 번호와 전송받은 인증번호를 입력한 뒤 보관함을 열어 물품 수령",대형/01+중형/02+소형/03,01/1+02/8+03/17,01/60+02/60+03/60,01/50+02/50+03/50,01/90+02/45+03/22.5,2013-09-13,02-1899-4718,㈜새누,02-865-8391,2019-07-09,3190000,서울특별시 동작구,
예그리나주택,서울특별시,동작구,11590,서울특별시 동작구 국사봉8길47,,37.494674,126.9307958,00:00,23:59,00:00,23:59,00:00,23:59,48,24,1000,03,"물품 배송 시 휴대폰 문자로 전송되는 택배보관함번호, 인증번호를 확인하여, 해당 보관함에서 본인 휴대폰 번호와 전송받은 인증번호를 입력한 뒤 보관함을 열어 물품 수령",대형/01+중형/02+소형/03,01/1+02/3+03/15,01/55+02/55+03/55,01/45+02/45+03/45,01/90+02/45+03/30,2016-01-02,02-1899-4719,㈜새누,02-865-8392,2019-07-09,3190000,서울특별시 동작구,
사당어르신종합복지관,서울특별시,동작구,11590,서울특별시 동작구 남부순환로2081,,37.4769551,126.979840,00:00,23:59,00:00,23:59,00:00,23:59,48,24,1000,03,"물품 배송 시 휴대폰 문자로 전송되는 택배보관함번호, 인증번호를 확인하여, 해당 보관함에서 본인 휴대폰 번호와 전송받은 인증번호를 입력한 뒤 보관함을 열어 물품 수령",대형/01+중형/02+소형/03,01/1+02/3+03/15,01/55+02/55+03/55,01/45+02/45+03/45,01/90+02/45+03/30,2013-09-13,02-1899-4720,㈜새누,02-865-8393,2019-07-09,3190000,서울특별시 동작구,
사당문화회관,서울특별시,동작구,11590,서울특별시 동작구 사당로8길9,,37.4846829,126.9695996,00:00,23:59,00:00,23:59,00:00,23:59,48,24,1000,03,"물품 배송 시 휴대폰 문자로 전송되는 택배보관함번호, 인증번호를 확인하여, 해당 보관함에서 본인 휴대폰 번호와 전송받은 인증번호를 입력한 뒤 보관함을 열어 물품 수령",대형/01+중형/02+소형/03,01/0+02/5+03/11,02/55+03/55,02/45+03/45,02/45+03/22.5,2016-10-04,02-1899-4721,㈜새누,02-865-8394,2019-07-09,3190000,서울특별시 동작구,
여성안심택배함,서울특별시,구로구,11530,서울특별시 구로구 개봉로15길 58-2,서울특별시 구로구 개봉동 340-8,37.489929,126.852866,00:00,23:59,00:00,23:59,00:00,23:59,48,24,1000,01,택배 수령자가 물품수령 장소를 안심택배보관함 주소로 지정해당물품의 배송일시와 인증번호가 휴대폰 문자메시지로 전송48시간 이내에 해당 보관함에서 휴대폰 번호와 인증번호를 입력하고 물품 수령,대형/01+중형/07+중소형/01+소형/10,19,0.6m,2m,2.3m,2017-05-08,1899-4711,새누,1899-4711,2019-08-21,3160000,서울특별시 구로구,
여성안심택배함,서울특별시,구로구,11530,서울특별시 구로구 구로동로 141,서울특별시 구로구 구로동 704-12,37.491273,126.883314,00:00,23:59,00:00,23:59,00:00,23:59,48,24,1000,01,택배 수령자가 물품수령 장소를 안심택배보관함 주소로 지정해당물품의 배송일시와 인증번호가 휴대폰 문자메시지로 전송48시간 이내에 해당 보관함에서 휴대폰 번호와 인증번호를 입력하고 물품 수령,대형/01+중형/07+중소형/01+소형/10,19,0.7m,2m,2.3m,2013-06-07,1899-4711,새누,1899-4711,2019-08-21,3160000,서울특별시 구로구,
여성안심택배함,서울특별시,구로구,11530,서울특별시 구로구 구로동로26길 54,서울특별시 구로구 구로동 741-27,37.489868,126.887247,00:00,23:59,00:00,23:59,00:00,23:59,48,24,1000,01,택배 수령자가 물품수령 장소를 안심택배보관함 주소로 지정해당물품의 배송일시와 인증번호가 휴대폰 문자메시지로 전송48시간 이내에 해당 보관함에서 휴대폰 번호와 인증번호를 입력하고 물품 수령,대형/01+중형/07+중소형/01+소형/10,19,0.8m,2m,2.3m,2016-05-12,1899-4711,새누,1899-4711,2019-08-21,3160000,서울특별시 구로구,
여성안심택배함,서울특별시,구로구,11530,서울특별시 구로구 도림천로 352,서울특별시 구로구 구로동 120-3,37.493394,126.894230,00:00,23:59,00:00,23:59,00:00,23:59,48,24,1000,01,택배 수령자가 물품수령 장소를 안심택배보관함 주소로 지정해당물품의 배송일시와 인증번호가 휴대폰 문자메시지로 전송48시간 이내에 해당 보관함에서 휴대폰 번호와 인증번호를 입력하고 물품 수령,대형/01+중형/07+중소형/01+소형/10,19,0.9m,2m,2.3m,2016-05-12,1899-4711,새누,1899-4711,2019-08-21,3160000,서울특별시 구로구,
여성안심택배함,서울특별시,구로구,11530,서울특별시 구로구 가마산로25길 21,서울특별시 구로구 구로동 102,37.4971036768,126.8895473889,00:00,23:59,00:00,23:59,00:00,23:59,48,24,1000,01,택배 수령자가 물품수령 장소를 안심택배보관함 주소로 지정해당물품의 배송일시와 인증번호가 휴대폰 문자메시지로 전송48시간 이내에 해당 보관함에서 휴대폰 번호와 인증번호를 입력하고 물품 수령,대형/01+중형/07+중소형/01+소형/10,19,0.10m,2m,2.3m,2014-06-01,1899-4711,새누,1899-4711,2019-08-21,3160000,서울특별시 구로구,
여성안심택배함,서울특별시,구로구,11530,,서울특별시 구로구 구로동 585-3,37.502370,126.881484,00:00,23:59,00:00,23:59,00:00,23:59,48,24,1000,01,택배 수령자가 물품수령 장소를 안심택배보관함 주소로 지정해당물품의 배송일시와 인증번호가 휴대폰 문자메시지로 전송48시간 이내에 해당 보관함에서 휴대폰 번호와 인증번호를 입력하고 물품 수령,대형/01+중형/07+중소형/01+소형/10,19,0.11m,2m,2.3m,2014-06-01,1899-4711,새누,1899-4711,2019-08-21,3160000,서울특별시 구로구,
여성안심택배함,서울특별시,구로구,11530,서울특별시 구로구 고척로45길 39,서울특별시 구로구 고척동 산9-14,37.506582,126.853278,00:00,23:59,00:00,23:59,00:00,23:59,48,24,1000,01,택배 수령자가 물품수령 장소를 안심택배보관함 주소로 지정해당물품의 배송일시와 인증번호가 휴대폰 문자메시지로 전송48시간 이내에 해당 보관함에서 휴대폰 번호와 인증번호를 입력하고 물품 수령,대형/01+중형/07+중소형/01+소형/10,19,0.12m,2m,2.3m,2013-06-07,1899-4711,새누,1899-4711,2019-08-21,3160000,서울특별시 구로구,
